nome_fantasia,slug,inicio_atividades,porte_empresa,nome_cidade,sigla_uf,populacao_cidade,latitude_cidade,longitude_cidade,dist_1,dist_2,dist_3,dist_4
A A P R,a-a-p-r,27/11/1998,5,Ilhéus,BA,157639,-14.793,-39.046,246KM,281KM,211KM,193KM
A & J CARGAS,a-j-cargas,16/08/2001,1,Simões Filho,BA,137117,-12.7866,-38.4029,13KM,84KM,23KM,349KM
A & B RECICLAGEM,a-b-reciclagem,02/09/2009,1,Simões Filho,BA,137117,-12.7866,-38.4029,13KM,84KM,23KM,349KM
A B IMPORTADOS,a-b-importados,01/04/1998,1,Senhor do Bonfim,BA,79813,-10.4594,-40.1865,321KM,241KM,334KM,495KM
A & L MAGAZINE,a-l-magazine,02/02/1998,1,Condeúba,BA,17113,-14.9022,-41.9718,465KM,439KM,433KM,121KM
A A BRITO REPRESENTACOES DE MATERIAL DE CONSTRUCOES,a-a-brito-representacoes-de-material-de-construcoes,03/03/2008,1,Seabra,BA,44370,-12.4169,-41.7722,375KM,305KM,360KM,290KM
A BENCAO,a-bencao,18/08/2004,5,Camaçari,BA,309208,-12.6996,-38.3263,0KM,85KM,36KM,362KM
A BARATINHA,a-baratinha,02/08/2007,1,Itaeté,BA,16164,-12.9831,-40.9677,288KM,232KM,267KM,209KM
A BAHIA,a-bahia,17/04/2001,1,Mascote,BA,13619,-15.5542,-39.3016,335KM,367KM,300KM,183KM
A BARATINHA CONFECCOES,a-baratinha-confeccoes,31/10/2005,1,Itabuna,BA,214123,-14.7876,-39.2781,254KM,282KM,219KM,169KM
A BICICLETA,a-bicicleta,30/06/1992,1,Camaçari,BA,309208,-12.6996,-38.3263,0KM,85KM,36KM,362KM
A BIOQUIMIKA FARMACIA DE MANIPULACAO,a-bioquimika-farmacia-de-manipulacao,21/06/2005,1,Salvador,BA,2900319,-12.9718,-38.5011,36KM,93KM,0KM,328KM
A C A F A D,a-c-a-f-a-d,17/05/1999,5,Tucano,BA,50903,-10.9584,-38.7894,200KM,147KM,226KM,487KM
A C B C,a-c-b-c,26/04/1999,5,Bonito,BA,16999,-11.9668,-41.2647,329KM,252KM,320KM,325KM
A C ATACADO DE CIMENTO,a-c-atacado-de-cimento,11/09/2009,1,Xique-Xique,BA,46562,-10.823,-42.7245,521KM,439KM,516KM,492KM
A C C,a-c-c,22/05/2001,5,Serrinha,BA,81693,-11.6584,-39.01,137KM,68KM,156KM,407KM
A C C,a-c-c,27/12/1995,5,Retirolândia,BA,14588,-11.4832,-39.4234,180KM,100KM,193KM,406KM
A C M,a-c-m,06/12/1996,5,Ibotirama,BA,27076,-12.1779,-43.2167,534KM,462KM,519KM,393KM
A C P ENGENHARIA,a-c-p-engenharia,19/01/1998,1,Salvador,BA,2900319,-12.9718,-38.5011,36KM,93KM,0KM,328KM
A CACULA CONFECCOES,a-cacula-confeccoes,10/05/1985,1,Jequié,BA,156277,-13.8509,-40.0877,230KM,214KM,198KM,139KM
A CAMPONESA,a-camponesa,15/08/2008,1,Souto Soares,BA,17118,-12.088,-41.6427,366KM,291KM,354KM,320KM
A CAMPONESA,a-camponesa,29/07/2002,3,Valença,BA,97873,-13.3669,-39.073,110KM,123KM,76KM,253KM
A CANTAINA,a-cantaina,26/05/2014,1,Juazeiro,BA,219544,-9.41622,-40.5033,435KM,358KM,451KM,607KM
A CASA DO CRIADOR,a-casa-do-criador,27/10/2005,1,Capim Grosso,BA,31055,-11.3797,-40.0089,234KM,150KM,241KM,397KM
A CENTRAL COMERCIO E SERVICOS,a-central-comercio-e-servicos,29/01/2010,1,Formosa do Rio Preto,BA,26111,-11.0328,-45.193,768KM,690KM,757KM,632KM
A COMERCIAL JOIAS,a-comercial-joias,19/09/1973,1,Brumado,BA,67468,-14.2021,-41.6696,399KM,364KM,370KM,115KM
A COMUNIDADE RESTAURANDO VIDAS,a-comunidade-restaurando-vidas,07/03/2012,5,Vitória da Conquista,BA,343643,-14.8615,-40.8442,364KM,353KM,330KM,0KM
A COMPAT,a-compat,18/06/2001,5,Jacobina,BA,80749,-11.1812,-40.5117,291KM,207KM,295KM,411KM
A D C A S S Q,a-d-c-a-s-s-q,30/11/2005,5,Sítio do Quinto,BA,9431,-10.3545,-38.2213,261KM,227KM,293KM,575KM
A CONQUISTADORA,a-conquistadora,12/07/1982,1,Gongogi,BA,6852,-14.3195,-39.469,219KM,235KM,183KM,160KM
A CONSTRUTORA,a-construtora,24/09/2009,3,Conceição do Jacuípe,BA,33631,-12.3268,-38.7684,63KM,23KM,77KM,359KM
A DISBAL,a-disbal,16/08/1994,5,Várzea da Roça,BA,14135,-11.6005,-40.1328,231KM,147KM,233KM,371KM
A CONSTRUCENTER METALURGICA,a-construcenter-metalurgica,25/09/1986,1,Feira de Santana,BA,624107,-12.2664,-38.9663,84KM,0KM,93KM,352KM
A F CVONSTRUCOES,a-f-cvonstrucoes,05/07/2010,1,Araci,BA,54903,-11.3253,-38.9584,167KM,105KM,190KM,442KM
A F MATERIAIS DE CONSTRUCAO,a-f-materiais-de-construcao,10/09/2009,1,Brumado,BA,67468,-14.2021,-41.6696,399KM,364KM,370KM,115KM
A F P M M,a-f-p-m-m,06/06/1984,5,Mairi,BA,18535,-11.7107,-40.1437,226KM,142KM,227KM,358KM
A FAZENDINHA PRODUTOS VETERINARIOS,a-fazendinha-produtos-veterinarios,10/10/1994,1,Entre Rios,BA,42014,-11.9392,-38.0871,88KM,102KM,123KM,440KM
A E L COMERCIO E SERVICOS,a-e-l-comercio-e-servicos,18/05/2010,1,Salvador,BA,2900319,-12.9718,-38.5011,36KM,93KM,0KM,328KM
A FITA CONFECCOES,a-fita-confeccoes,06/07/2007,1,Feira de Santana,BA,624107,-12.2664,-38.9663,84KM,0KM,93KM,352KM
A FORMULA,a-formula,06/07/2004,3,Feira de Santana,BA,624107,-12.2664,-38.9663,84KM,0KM,93KM,352KM
A FORMULA,a-formula,09/11/2001,3,Ilhéus,BA,157639,-14.793,-39.046,246KM,281KM,211KM,193KM
A FORMULA,a-formula,22/08/2007,3,Jacobina,BA,80749,-11.1812,-40.5117,291KM,207KM,295KM,411KM
A FORMULA,a-formula,21/10/1988,5,Salvador,BA,2900319,-12.9718,-38.5011,36KM,93KM,0KM,328KM
A G COMERCIAL DE ALIMENTOS E BEBIDAS,a-g-comercial-de-alimentos-e-bebidas,01/02/2002,1,São Francisco do Conde,BA,40664,-12.6183,-38.6786,39KM,50KM,44KM,341KM
A FUNERARIA,a-funeraria,01/02/1977,1,Valença,BA,97873,-13.3669,-39.073,110KM,123KM,76KM,253KM
A FEIRITA DISTRIBUIDORA,a-feirita-distribuidora,13/01/2000,3,São Gonçalo dos Campos,BA,38315,-12.4331,-38.9663,75KM,19KM,78KM,337KM
A G SERVICOS,a-g-servicos,25/05/2010,1,Ilhéus,BA,157639,-14.793,-39.046,246KM,281KM,211KM,193KM
A FORTIORI,a-fortiori,03/09/1993,3,Caetité,BA,51184,-14.0684,-42.4861,476KM,432KM,449KM,197KM
A GRACIOSA,a-graciosa,18/12/2009,1,Barreiras,BA,158432,-12.1439,-44.9968,726KM,655KM,710KM,539KM
A G MELLO REPRESENTACOES,a-g-mello-representacoes,21/06/2010,1,Itabuna,BA,214123,-14.7876,-39.2781,254KM,282KM,219KM,169KM
A GURILANDIA,a-gurilandia,19/01/1994,1,Alagoinhas,BA,153023,-12.1335,-38.4208,64KM,61KM,94KM,400KM
A IDEAL MODAS,a-ideal-modas,01/02/1993,3,Itapetinga,BA,77408,-15.2475,-40.2482,352KM,360KM,316KM,77KM
A L MERCADINHO,a-l-mercadinho,03/03/2010,1,Almadina,BA,5273,-14.7089,-39.6415,265KM,281KM,229KM,130KM
A J REPRESENTACOES,a-j-representacoes,14/05/1992,1,Vitória da Conquista,BA,343643,-14.8615,-40.8442,364KM,353KM,330KM,0KM
A L S CELEULARES,a-l-s-celeulares,14/10/2008,1,Feira de Santana,BA,624107,-12.2664,-38.9663,84KM,0KM,93KM,352KM
A IGREJA EM BARREIRAS,a-igreja-em-barreiras,15/12/1998,5,Barreiras,BA,158432,-12.1439,-44.9968,726KM,655KM,710KM,539KM
A M K,a-m-k,09/02/1994,5,Brejões,BA,14155,-13.1039,-39.7988,166KM,130KM,141KM,225KM
A M E,a-m-e,24/10/2003,5,Jeremoabo,BA,40832,-10.0685,-38.3471,293KM,253KM,323KM,597KM
A M V M,a-m-v-m,03/09/1990,5,São Francisco do Conde,BA,40664,-12.6183,-38.6786,39KM,50KM,44KM,341KM
A M A,a-m-a,10/03/1988,5,Conceição do Coité,BA,67394,-11.56,-39.2808,164KM,86KM,178KM,404KM
A M MATERIAL DE CONSTRUCAO,a-m-material-de-construcao,17/01/1992,1,Simões Filho,BA,137117,-12.7866,-38.4029,13KM,84KM,23KM,349KM
A MIRASSOL MATERIAIS DE CONSTRUCAO,a-mirassol-materiais-de-construcao,22/09/1993,1,Guanambi,BA,85353,-14.2231,-42.7799,512KM,468KM,484KM,220KM
A MINEIRINHA,a-mineirinha,01/12/1997,3,Mucugê,BA,8725,-13.0053,-41.3703,332KM,274KM,311KM,214KM
A MISCELANIA ARMARINHO,a-miscelania-armarinho,06/02/1991,1,Salvador,BA,2900319,-12.9718,-38.5011,36KM,93KM,0KM,328KM
A L O S SERVICOS,a-l-o-s-servicos,25/01/2008,1,Araci,BA,54903,-11.3253,-38.9584,167KM,105KM,190KM,442KM
A MONARA,a-monara,01/02/1989,1,Gandu,BA,32778,-13.7441,-39.4747,170KM,173KM,136KM,193KM
A NONA,a-nona,17/02/2004,3,Feira de Santana,BA,624107,-12.2664,-38.9663,84KM,0KM,93KM,352KM
A NATURAL,a-natural,08/03/2001,1,Capim Grosso,BA,31055,-11.3797,-40.0089,234KM,150KM,241KM,397KM
A P M (ASSOCIACAO DE PAIS E MESTRES DAS ESCOLAS,a-p-m-associacao-de-pais-e-mestres-das-escolas,13/10/2003,5,Nova Ibiá,BA,6518,-13.812,-39.6182,187KM,186KM,153KM,176KM
A NOSSA DENTAL,a-nossa-dental,09/08/2001,1,Itabuna,BA,214123,-14.7876,-39.2781,254KM,282KM,219KM,169KM
A P P DE LEITE DE PALMEIRA E REGIAO,a-p-p-de-leite-de-palmeira-e-regiao,11/12/2007,5,Miguel Calmon,BA,25771,-11.4299,-40.6031,284KM,201KM,285KM,382KM
A P P ASSOCIACAO DE PAIS E PROFESSORES,a-p-p-associacao-de-pais-e-professores,28/04/1999,5,Floresta Azul,BA,10525,-14.8629,-39.6579,281KM,298KM,245KM,127KM
A P P R V - ASSOCIACAO,a-p-p-r-v-associacao,20/05/2007,5,Catu,BA,55222,-12.3513,-38.3791,39KM,64KM,70KM,385KM
A PEDRA MISSELANIA,a-pedra-misselania,10/11/1987,1,Santa Cruz da Vitória,BA,6241,-14.964,-39.8115,299KM,314KM,263KM,112KM
A PARCERIA CONSULT LTDA,a-parceria-consult-ltda,30/01/2002,1,Ilhéus,BA,157639,-14.793,-39.046,246KM,281KM,211KM,193KM
A PANELA,a-panela,20/12/2002,1,Salvador,BA,2900319,-12.9718,-38.5011,36KM,93KM,0KM,328KM
A POPULAR,a-popular,11/09/2001,1,Itajuípe,BA,20309,-14.6788,-39.3698,247KM,272KM,212KM,160KM
A POPULAR,a-popular,02/01/1997,1,Itamaraju,BA,64423,-17.0378,-39.5386,500KM,534KM,466KM,280KM
A PRIMORDIAL,a-primordial,22/11/1977,5,Salvador,BA,2900319,-12.9718,-38.5011,36KM,93KM,0KM,328KM
A PRINCIPAL DOS TECIDOS,a-principal-dos-tecidos,22/02/1994,3,Senhor do Bonfim,BA,79813,-10.4594,-40.1865,321KM,241KM,334KM,495KM
A PREDILETA,a-predileta,09/01/1986,1,Itaberaba,BA,64795,-12.5242,-40.3059,216KM,148KM,202KM,266KM
A ROCA,a-roca,27/01/1987,1,Ubaitaba,BA,18647,-14.303,-39.3222,208KM,230KM,173KM,175KM
A PONTUAL,a-pontual,09/10/1986,1,Iraquara,BA,25728,-12.2429,-41.6155,360KM,288KM,347KM,303KM
A R C REPRESENTACOES,a-r-c-representacoes,08/04/1992,1,Salvador,BA,2900319,-12.9718,-38.5011,36KM,93KM,0KM,328KM
A S A MONTAGEM INDUSTRIAL,a-s-a-montagem-industrial,29/11/1999,5,Camaçari,BA,309208,-12.6996,-38.3263,0KM,85KM,36KM,362KM
A S CONSTRUCOES,a-s-construcoes,28/09/1979,5,Feira de Santana,BA,624107,-12.2664,-38.9663,84KM,0KM,93KM,352KM
A S ANDRESA DE SA FOTO & IMAGEM DIGITAL,a-s-andresa-de-sa-foto-imagem-digital,02/06/2008,1,Salvador,BA,2900319,-12.9718,-38.5011,36KM,93KM,0KM,328KM
A S CO B E C A N,a-s-co-b-e-c-a-n,29/08/2011,5,Biritinga,BA,15989,-11.6072,-38.8051,132KM,75KM,155KM,423KM
A S CONSTRUTORA,a-s-construtora,30/03/2012,5,Santana,BA,26792,-12.9792,-44.0506,622KM,558KM,601KM,403KM
A SORTE E SUA,a-sorte-e-sua,18/08/2004,1,Canudos,BA,16832,-9.90014,-39.1471,324KM,264KM,349KM,581KM
A S C O M,a-s-c-o-m,06/05/1988,5,Barro Alto,BA,15171,-11.7605,-41.9054,402KM,324KM,393KM,363KM
A TERAPEUTICA,a-terapeutica,18/06/1998,3,Salvador,BA,2900319,-12.9718,-38.5011,36KM,93KM,0KM,328KM
A SERTANEJA,a-sertaneja,05/09/1983,3,Itaberaba,BA,64795,-12.5242,-40.3059,216KM,148KM,202KM,266KM
A SIMPATIA,a-simpatia,10/06/1988,5,Lajedinho,BA,3735,-12.3529,-40.9048,282KM,211KM,269KM,279KM
A S F L A M,a-s-f-l-a-m,08/08/2003,5,Salvador,BA,2900319,-12.9718,-38.5011,36KM,93KM,0KM,328KM
A SOLUCAO,a-solucao,11/02/1999,3,Feira de Santana,BA,624107,-12.2664,-38.9663,84KM,0KM,93KM,352KM
A SOS MATERIAIS HOSPITALARES,a-sos-materiais-hospitalares,27/03/2006,1,Salvador,BA,2900319,-12.9718,-38.5011,36KM,93KM,0KM,328KM
A T R I B COMERCIO E SERVICOS,a-t-r-i-b-comercio-e-servicos,07/03/2002,1,Serrinha,BA,81693,-11.6584,-39.01,137KM,68KM,156KM,407KM
A U C B,a-u-c-b,05/05/2011,5,Bonito,BA,16999,-11.9668,-41.2647,329KM,252KM,320KM,325KM
A VITORIA,a-vitoria,10/03/2005,1,Feira de Santana,BA,624107,-12.2664,-38.9663,84KM,0KM,93KM,352KM
A Z CALCADOS,a-z-calcados,20/09/2004,1,Ibicoara,BA,19990,-13.4059,-41.284,330KM,282KM,305KM,169KM
A-ASOCOPO,a-asocopo,23/05/1997,5,Santana,BA,26792,-12.9792,-44.0506,622KM,558KM,601KM,403KM
A TRIBO,a-tribo,31/08/2009,3,Feira de Santana,BA,624107,-12.2664,-38.9663,84KM,0KM,93KM,352KM
A. K. C. V.,a-k-c-v,15/11/1999,5,Valente,BA,29111,-11.4062,-39.457,189KM,110KM,203KM,412KM
A. L. DISTRIBUIDORA,a-l-distribuidora,19/05/2004,1,Retirolândia,BA,14588,-11.4832,-39.4234,180KM,100KM,193KM,406KM
A. L. B. A. CONFECCOES,a-l-b-a-confeccoes,03/12/2010,1,Salvador,BA,2900319,-12.9718,-38.5011,36KM,93KM,0KM,328KM
A. S. EMPREENDIMENTOS,a-s-empreendimentos,14/12/1995,3,Tanhaçu,BA,20383,-14.0197,-41.2473,349KM,315KM,320KM,103KM
A. SA TOUR,a-sa-tour,30/06/1999,1,Salvador,BA,2900319,-12.9718,-38.5011,36KM,93KM,0KM,328KM
A.B.C.P.A.S.N,abcpasn,13/10/2009,5,Araci,BA,54903,-11.3253,-38.9584,167KM,105KM,190KM,442KM
A. J. DISTRIBUIDORA,a-j-distribuidora,11/06/2012,1,Irecê,BA,74050,-11.3033,-41.8535,413KM,331KM,408KM,410KM
A. M. E.,a-m-e,08/04/2011,5,Cruz das Almas,BA,63923,-12.6675,-39.1008,84KM,47KM,73KM,308KM
A.B.R.C.J.,abrcj,23/08/1999,5,Teofilândia,BA,22590,-11.4827,-38.9913,153KM,87KM,174KM,425KM
A. V. MEDICINA,a-v-medicina,17/05/2010,3,Santo Antônio de Jesus,BA,103204,-12.9614,-39.2584,105KM,84KM,82KM,271KM
A.C.A.M.S,acams,22/08/2000,5,Juazeiro,BA,219544,-9.41622,-40.5033,435KM,358KM,451KM,607KM
A.C.M.,acm,02/03/1998,5,Retirolândia,BA,14588,-11.4832,-39.4234,180KM,100KM,193KM,406KM
A.C.C,acc,01/10/1998,5,Retirolândia,BA,14588,-11.4832,-39.4234,180KM,100KM,193KM,406KM
A.C. TECH,ac-tech,27/04/2007,1,Salvador,BA,2900319,-12.9718,-38.5011,36KM,93KM,0KM,328KM
A.C.R.P,acrp,20/08/1999,5,Tucano,BA,50903,-10.9584,-38.7894,200KM,147KM,226KM,487KM
A.D.L. ASSOCIACAO DESPORTIVA LUSACA,adl-associacao-desportiva-lusaca,10/09/2007,5,Dias d'Ávila,BA,83705,-12.6187,-38.2926,10KM,83KM,45KM,371KM
A.C.REPRESENTACOES,acrepresentacoes,20/09/2002,1,Alagoinhas,BA,153023,-12.1335,-38.4208,64KM,61KM,94KM,400KM
A.F.F. REPRESENTACOES DE PRODUTOS ALIMENTICIOS LTDA,aff-representacoes-de-produtos-alimenticios-ltda,18/07/2007,1,Cipó,BA,17402,-11.1032,-38.5179,179KM,138KM,208KM,487KM
A.C.M.D.I,acmdi,22/06/2011,5,Mirante,BA,8264,-14.2385,-40.7718,316KM,294KM,284KM,70KM
A.D.U.R.,adur,24/05/2005,5,Barra,BA,54225,-11.0859,-43.1459,553KM,473KM,545KM,487KM
A.M. MATERIAIS DE CONSTRUCAO,am-materiais-de-construcao,29/03/2011,1,Camaçari,BA,309208,-12.6996,-38.3263,0KM,85KM,36KM,362KM
A.M.J.,amj,13/04/1997,5,Ubaíra,BA,19860,-13.2714,-39.666,159KM,135KM,131KM,217KM
A.M.M,amm,19/12/1997,5,Salvador,BA,2900319,-12.9718,-38.5011,36KM,93KM,0KM,328KM
A.C.U.T,acut,08/05/2008,5,Lapão,BA,27323,-11.3851,-41.8286,407KM,326KM,401KM,401KM
A.N. PROCESSAMENTO DE DADOS,an-processamento-de-dados,31/08/1998,1,Salvador,BA,2900319,-12.9718,-38.5011,36KM,93KM,0KM,328KM
A.P.M.E.L.H.K,apmelhk,13/03/2000,5,Wenceslau Guimarães,BA,20862,-13.6908,-39.4762,166KM,168KM,132KM,196KM
A.P.M.E.M.A.S,apmemas,13/03/2000,5,Wenceslau Guimarães,BA,20862,-13.6908,-39.4762,166KM,168KM,132KM,196KM
A.P.M.E.S.L,apmesl,13/03/2000,5,Wenceslau Guimarães,BA,20862,-13.6908,-39.4762,166KM,168KM,132KM,196KM
A.P.R.T.,aprt,09/05/2000,5,Mucuri,BA,42729,-18.0754,-39.5565,612KM,649KM,579KM,383KM
A.R. MULTI SERVICOS,ar-multi-servicos,09/05/2003,1,Feira de Santana,BA,624107,-12.2664,-38.9663,84KM,0KM,93KM,352KM
A.P.P.M.E.U,appmeu,13/03/2000,5,Wenceslau Guimarães,BA,20862,-13.6908,-39.4762,166KM,168KM,132KM,196KM
A.P.M,apm,20/06/1997,5,Itabela,BA,30901,-16.5732,-39.5593,451KM,483KM,417KM,235KM
A.P DE OLIVEIRA,ap-de-oliveira,30/01/2008,1,Luís Eduardo Magalhães,BA,92671,-12.0956,-45.7866,812KM,741KM,795KM,614KM
A.R.W . PECAS,arw-pecas,17/05/2006,3,Valente,BA,29111,-11.4062,-39.457,189KM,110KM,203KM,412KM
A.S.G.,asg,20/09/2000,5,Santo Antônio de Jesus,BA,103204,-12.9614,-39.2584,105KM,84KM,82KM,271KM
A.R.C.A,arca,01/09/1997,5,Buerarema,BA,18269,-14.9595,-39.3028,273KM,302KM,237KM,166KM
A.R.A,ara,04/11/1999,5,Remanso,BA,41324,-9.61944,-42.0848,533KM,449KM,538KM,598KM
A.T.R.T.B,atrtb,29/12/2004,5,Bonito,BA,16999,-11.9668,-41.2647,329KM,252KM,320KM,325KM
A&C INSTALACOES E COMERCIO LTDA,ac-instalacoes-e-comercio-ltda,17/06/2010,1,Salvador,BA,2900319,-12.9718,-38.5011,36KM,93KM,0KM,328KM
A&C INFORTECH,ac-infortech,30/09/2011,1,Salvador,BA,2900319,-12.9718,-38.5011,36KM,93KM,0KM,328KM
A.T.C.,atc,15/12/1997,5,Central,BA,17293,-11.1376,-42.1116,446KM,364KM,441KM,436KM
A+ MEDICINA DIAGNOSTICA,a-medicina-diagnostica,27/08/2009,5,Salvador,BA,2900319,-12.9718,-38.5011,36KM,93KM,0KM,328KM
A&FF MERCADINHO,aff-mercadinho,07/07/2011,1,Santo Amaro,BA,60190,-12.5472,-38.7137,45KM,42KM,53KM,344KM
A4 AGRICOLA E PECUARIA,a4-agricola-e-pecuaria,14/01/2011,5,Teixeira de Freitas,BA,164290,-17.5399,-39.74,560KM,592KM,525KM,321KM
A4 AGRICOLA E PECUARIA,a4-agricola-e-pecuaria,14/01/2011,5,Guaratinga,BA,20565,-16.5833,-39.7847,460KM,488KM,425KM,223KM
A4 AGRICOLA E PECUARIA,a4-agricola-e-pecuaria,14/01/2011,5,Guaratinga,BA,20565,-16.5833,-39.7847,460KM,488KM,425KM,223KM
A3 ESTAGIO,a3-estagio,08/09/2006,1,Salvador,BA,2900319,-12.9718,-38.5011,36KM,93KM,0KM,328KM
A2 CORRETORA DE SEGUROS,a2-corretora-de-seguros,11/03/2011,1,Alagoinhas,BA,153023,-12.1335,-38.4208,64KM,61KM,94KM,400KM
AA LAGOA DA VACA,aa-lagoa-da-vaca,07/02/2001,5,Paripiranga,BA,29124,-10.6859,-37.8626,229KM,213KM,263KM,564KM
A5 ENTRETENIMENTO,a5-entretenimento,25/01/2005,5,Salvador,BA,2900319,-12.9718,-38.5011,36KM,93KM,0KM,328KM
AABB,aabb,05/04/1977,5,Brumado,BA,67468,-14.2021,-41.6696,399KM,364KM,370KM,115KM
AABB,aabb,17/11/1977,5,Itanhém,BA,19231,-17.1642,-40.3321,542KM,564KM,507KM,262KM
AABANEB,aabaneb,18/04/1977,5,Ilhéus,BA,157639,-14.793,-39.046,246KM,281KM,211KM,193KM
AABB,aabb,30/05/1972,5,Itabuna,BA,214123,-14.7876,-39.2781,254KM,282KM,219KM,169KM
AABB,aabb,28/06/1971,5,Serrinha,BA,81693,-11.6584,-39.01,137KM,68KM,156KM,407KM
AABB,aabb,04/09/1978,5,Miguel Calmon,BA,25771,-11.4299,-40.6031,284KM,201KM,285KM,382KM
AABB,aabb,27/03/1969,5,Senhor do Bonfim,BA,79813,-10.4594,-40.1865,321KM,241KM,334KM,495KM
AABB,aabb,23/11/1979,5,Condeúba,BA,17113,-14.9022,-41.9718,465KM,439KM,433KM,121KM
AABB,aabb,19/12/1980,5,Belmonte,BA,23540,-15.8608,-38.8758,357KM,400KM,324KM,239KM
AABBI,aabbi,13/05/2003,5,Ipiaú,BA,45969,-14.1226,-39.7353,220KM,223KM,185KM,145KM
AABB,aabb,10/07/1980,5,Ibirataia,BA,14476,-14.0643,-39.6459,209KM,213KM,174KM,156KM
AABB,aabb,12/04/1978,5,Ubaitaba,BA,18647,-14.303,-39.3222,208KM,230KM,173KM,175KM
AACP,aacp,27/03/2006,5,América Dourada,BA,16086,-11.4429,-41.439,365KM,284KM,361KM,385KM
AACMC,aacmc,16/07/1999,5,Candeias,BA,87820,-12.6716,-38.5472,24KM,64KM,34KM,347KM
AACOSNOT,aacosnot,03/02/1999,5,Novo Triunfo,BA,15445,-10.3182,-38.4014,265KM,225KM,295KM,569KM
AACOSA,aacosa,06/04/2000,5,Adustina,BA,17209,-10.5437,-38.1113,241KM,213KM,273KM,563KM
AACACEMN,aacacemn,31/03/2000,5,Medeiros Neto,BA,22741,-17.3707,-40.2238,559KM,584KM,524KM,287KM
AACSI,aacsi,04/10/2001,5,Itapetinga,BA,77408,-15.2475,-40.2482,352KM,360KM,316KM,77KM
AACSJ,aacsj,03/04/2003,5,Jandaíra,BA,10742,-11.5616,-37.7853,139KM,150KM,175KM,493KM
AACG,aacg,28/06/2010,5,Caldeirão Grande,BA,13452,-11.0208,-40.2956,284KM,200KM,291KM,431KM
AACSMO,aacsmo,23/01/1998,5,Ourolândia,BA,17567,-10.9578,-41.0756,356KM,271KM,358KM,435KM
AAFCC,aafcc,08/08/2011,5,Camacan,BA,32023,-15.4142,-39.4919,327KM,355KM,292KM,158KM
AAFAM-CAATINGA,aafam-caatinga,13/05/2014,5,Juazeiro,BA,219544,-9.41622,-40.5033,435KM,358KM,451KM,607KM
AACSN,aacsn,15/01/1999,5,Nordestina,BA,13197,-10.8192,-39.4297,241KM,169KM,260KM,475KM
AAPG- ASSOCIACAO,aapg-associacao,19/08/2005,5,Glória,BA,15247,-9.34382,-38.2544,373KM,334KM,404KM,674KM
AASCEI,aascei,21/02/2001,5,Itiúba,BA,36140,-10.6948,-39.8446,277KM,199KM,292KM,476KM
AAMFLM,aamflm,18/11/2009,5,Canudos,BA,16832,-9.90014,-39.1471,324KM,264KM,349KM,581KM
AAPCMBA,aapcmba,17/08/1998,5,Salvador,BA,2900319,-12.9718,-38.5011,36KM,93KM,0KM,328KM
AALC,aalc,18/08/2004,5,Caetité,BA,51184,-14.0684,-42.4861,476KM,432KM,449KM,197KM
AAQALNA,aaqalna,23/11/2005,5,Campo Formoso,BA,71754,-10.5105,-40.32,326KM,244KM,337KM,487KM
AAFI,aafi,03/05/2010,5,Itaberaba,BA,64795,-12.5242,-40.3059,216KM,148KM,202KM,266KM
ABAETE DROGARIA E COSMETICOS,abaete-drogaria-e-cosmeticos,14/05/2010,3,Poções,BA,46885,-14.5234,-40.3634,300KM,293KM,266KM,64KM
ABABAS,ababas,07/04/1987,5,Salvador,BA,2900319,-12.9718,-38.5011,36KM,93KM,0KM,328KM
AATICA,aatica,31/08/1989,1,Salvador,BA,2900319,-12.9718,-38.5011,36KM,93KM,0KM,328KM
ABA TRANSFORMERSS,aba-transformerss,15/06/2011,1,Salvador,BA,2900319,-12.9718,-38.5011,36KM,93KM,0KM,328KM
AB2,ab2,21/03/2007,1,Alagoinhas,BA,153023,-12.1335,-38.4208,64KM,61KM,94KM,400KM
ABAM,abam,08/05/1998,5,Salvador,BA,2900319,-12.9718,-38.5011,36KM,93KM,0KM,328KM
ABAPEQ,abapeq,28/11/1988,5,Salvador,BA,2900319,-12.9718,-38.5011,36KM,93KM,0KM,328KM
ABACAFE,abacafe,24/10/2006,5,Luís Eduardo Magalhães,BA,92671,-12.0956,-45.7866,812KM,741KM,795KM,614KM
ABAS,abas,10/12/2002,5,São Francisco do Conde,BA,40664,-12.6183,-38.6786,39KM,50KM,44KM,341KM
ABATEDOURO CANAA,abatedouro-canaa,21/01/2011,1,Serrinha,BA,81693,-11.6584,-39.01,137KM,68KM,156KM,407KM
ABAMU,abamu,24/04/1990,5,Barra,BA,54225,-11.0859,-43.1459,553KM,473KM,545KM,487KM
ABASE,abase,29/06/1973,5,Salvador,BA,2900319,-12.9718,-38.5011,36KM,93KM,0KM,328KM
ABARA E CIA DA ROSE,abara-e-cia-da-rose,28/11/2011,1,Salvador,BA,2900319,-12.9718,-38.5011,36KM,93KM,0KM,328KM
ABATEDOURO ANTONIO FRAGA,abatedouro-antonio-fraga,08/10/1998,1,Santo Antônio de Jesus,BA,103204,-12.9614,-39.2584,105KM,84KM,82KM,271KM
ABATEDOURO DO POVO,abatedouro-do-povo,22/12/2004,1,Belmonte,BA,23540,-15.8608,-38.8758,357KM,400KM,324KM,239KM
ABATEDOURO DE AVES COSTA,abatedouro-de-aves-costa,18/05/2012,1,Rio Real,BA,41209,-11.4814,-37.9332,142KM,142KM,177KM,489KM
ABATEDOURO IRMAOS RONALDO,abatedouro-irmaos-ronaldo,17/03/2011,1,Santa Cruz Cabrália,BA,28058,-16.2825,-39.0295,406KM,447KM,373KM,251KM
ABATEDOURO NOSSA SENHORA DE FATIMA,abatedouro-nossa-senhora-de-fatima,20/07/1995,1,São Félix,BA,14784,-12.6104,-38.9727,71KM,38KM,65KM,321KM
ABC CONTABILIDADE,abc-contabilidade,18/02/1991,1,Salvador,BA,2900319,-12.9718,-38.5011,36KM,93KM,0KM,328KM
ABCEGS,abcegs,10/07/2009,5,Ipirá,BA,59281,-12.1561,-39.7359,164KM,85KM,162KM,324KM
ABBY DESENVOLVIMENTO PROFISSIONAL,abby-desenvolvimento-profissional,21/01/1994,1,Salvador,BA,2900319,-12.9718,-38.5011,36KM,93KM,0KM,328KM
ABC EMBALAGENS LTDA,abc-embalagens-ltda,30/12/2002,1,Camaçari,BA,309208,-12.6996,-38.3263,0KM,85KM,36KM,362KM
ABC ELETRO,abc-eletro,15/06/1989,5,Juazeiro,BA,219544,-9.41622,-40.5033,435KM,358KM,451KM,607KM
ABCCVRA,abccvra,16/08/2005,5,Várzea da Roça,BA,14135,-11.6005,-40.1328,231KM,147KM,233KM,371KM
ABECERV,abecerv,31/12/1984,5,Várzea do Poço,BA,9247,-11.5273,-40.3149,252KM,168KM,254KM,375KM
ABELARDO IMOVEIS,abelardo-imoveis,02/02/2002,1,Salvador,BA,2900319,-12.9718,-38.5011,36KM,93KM,0KM,328KM
ABD-RB,abd-rb,14/07/1999,5,Salvador,BA,2900319,-12.9718,-38.5011,36KM,93KM,0KM,328KM
ABEL WALDEMIR DE LIMA COSTA,abel-waldemir-de-lima-costa,05/07/2011,1,Feira de Santana,BA,624107,-12.2664,-38.9663,84KM,0KM,93KM,352KM
ABELHA VEICULOS,abelha-veiculos,21/06/2004,1,Senhor do Bonfim,BA,79813,-10.4594,-40.1865,321KM,241KM,334KM,495KM
ABEMOJABA,abemojaba,16/07/2007,5,Mata de São João,BA,47643,-12.5307,-38.3009,19KM,78KM,54KM,377KM
ABESP,abesp,28/08/1992,5,Salvador,BA,2900319,-12.9718,-38.5011,36KM,93KM,0KM,328KM
ABEPO,abepo,24/11/2009,5,Vitória da Conquista,BA,343643,-14.8615,-40.8442,364KM,353KM,330KM,0KM
ABELSA,abelsa,11/10/1990,5,Coronel João Sá,BA,15549,-10.2847,-37.9198,272KM,248KM,305KM,598KM
ABIATAR MODA FEMININA,abiatar-moda-feminina,05/10/2010,3,Salvador,BA,2900319,-12.9718,-38.5011,36KM,93KM,0KM,328KM
ABIDE,abide,11/06/2001,5,Barreiras,BA,158432,-12.1439,-44.9968,726KM,655KM,710KM,539KM
ABELHEIS E COMPANNHIS COMIDA BAIANA,abelheis-e-compannhis-comida-baiana,24/08/2007,1,Salvador,BA,2900319,-12.9718,-38.5011,36KM,93KM,0KM,328KM
ABFRUD,abfrud,08/06/2009,5,Chorrochó,BA,11221,-8.9695,-39.0979,423KM,367KM,450KM,682KM
ABIJCSUD,abijcsud,26/10/1999,5,Salvador,BA,2900319,-12.9718,-38.5011,36KM,93KM,0KM,328KM
ABMRB,abmrb,22/09/1997,5,Jiquiriçá,BA,14576,-13.2621,-39.5737,149KM,129KM,121KM,224KM
ABIB,abib,25/07/1988,5,João Dourado,BA,25606,-11.3486,-41.6548,391KM,309KM,386KM,400KM
ABRE EMPREENDIMENTOS & PARTICIPACOES,abre-empreendimentos-participacoes,27/11/2006,1,Salvador,BA,2900319,-12.9718,-38.5011,36KM,93KM,0KM,328KM
ABS - TRANSPORTES E COMERCIO,abs-transportes-e-comercio,17/09/2009,1,Salvador,BA,2900319,-12.9718,-38.5011,36KM,93KM,0KM,328KM
ABRIGO DRINK S DISTRIBUIDORA DE BEBIDAS E ALIMENTOS,abrigo-drink-s-distribuidora-de-bebidas-e-alimentos,18/07/2007,1,Senhor do Bonfim,BA,79813,-10.4594,-40.1865,321KM,241KM,334KM,495KM
ABPI,abpi,07/12/2000,5,Ituberá,BA,28870,-13.7249,-39.1481,145KM,163KM,109KM,222KM
ABOA,aboa,19/05/1998,5,Ourolândia,BA,17567,-10.9578,-41.0756,356KM,271KM,358KM,435KM
ABS DECORACOES,abs-decoracoes,16/01/2009,1,Salvador,BA,2900319,-12.9718,-38.5011,36KM,93KM,0KM,328KM
ABSJ,absj,03/11/2004,5,Adustina,BA,17209,-10.5437,-38.1113,241KM,213KM,273KM,563KM
ABS CONTABIL,abs-contabil,10/11/2010,1,Terra Nova,BA,13018,-12.3888,-38.6238,47KM,40KM,66KM,364KM
ABSOLUTA SOLUCOES,absoluta-solucoes,19/03/2008,1,Salvador,BA,2900319,-12.9718,-38.5011,36KM,93KM,0KM,328KM
ABSOLUTA CENTRO ESTETICO,absoluta-centro-estetico,30/03/1981,1,Eunápolis,BA,115360,-16.3715,-39.5821,430KM,461KM,396KM,216KM
ABUMPA,abumpa,25/01/1991,5,Itaparica,BA,22440,-12.8932,-38.68,44KM,76KM,21KM,319KM
AC ANDARAI,ac-andarai,24/06/1974,5,Andaraí,BA,13122,-12.8049,-41.3297,326KM,264KM,307KM,235KM
ABRMVG,abrmvg,01/02/2006,5,Pindobaçu,BA,20048,-10.7433,-40.3675,310KM,228KM,320KM,461KM
AC ANTAS,ac-antas,24/06/1974,5,Antas,BA,19659,-10.3856,-38.3401,257KM,220KM,288KM,566KM
AC AMARALINA,ac-amaralina,17/07/1974,5,Salvador,BA,2900319,-12.9718,-38.5011,36KM,93KM,0KM,328KM
AC BARRO ALTO,ac-barro-alto,11/07/1974,5,Barro Alto,BA,15171,-11.7605,-41.9054,402KM,324KM,393KM,363KM
AC ANDORINHA,ac-andorinha,03/11/1993,5,Andorinha,BA,14416,-10.3482,-39.8391,309KM,233KM,326KM,513KM
AC ACAJUTIBA,ac-acajutiba,05/12/1977,5,Acajutiba,BA,15214,-11.6575,-38.0197,121KM,123KM,155KM,468KM
AC APUAREMA,ac-apuarema,03/11/1993,5,Apuarema,BA,7274,-13.8542,-39.7501,201KM,196KM,167KM,162KM
AC CABULA,ac-cabula,12/04/1992,5,Salvador,BA,2900319,-12.9718,-38.5011,36KM,93KM,0KM,328KM
AC ARATUIPE,ac-aratuipe,24/06/1974,5,Aratuípe,BA,8848,-13.0716,-39.0038,84KM,90KM,56KM,281KM
AC BOM JESUS DA LAPA,ac-bom-jesus-da-lapa,11/07/1974,5,Bom Jesus da Lapa,BA,70151,-13.2506,-43.4108,555KM,495KM,533KM,329KM
AC CENTRO ADMINISTRATIVO DA BAHIA,ac-centro-administrativo-da-bahia,26/09/1975,5,Salvador,BA,2900319,-12.9718,-38.5011,36KM,93KM,0KM,328KM
AC CANDEAL,ac-candeal,24/06/1974,5,Candeal,BA,8109,-11.8049,-39.1203,132KM,54KM,146KM,387KM
AC DARIO MEIRA,ac-dario-meira,26/09/1975,5,Dário Meira,BA,10347,-14.4229,-39.9031,257KM,261KM,222KM,112KM
AC BONINAL,ac-boninal,11/07/1974,5,Boninal,BA,14518,-12.7069,-41.8286,380KM,315KM,362KM,262KM
AC COTEGIPE,ac-cotegipe,09/03/1978,5,Cotegipe,BA,13756,-12.0228,-44.2566,648KM,575KM,633KM,484KM
AC IBOTIRAMA,ac-ibotirama,05/07/1974,5,Ibotirama,BA,27076,-12.1779,-43.2167,534KM,462KM,519KM,393KM
AC GUARATINGA,ac-guaratinga,26/09/1975,5,Guaratinga,BA,20565,-16.5833,-39.7847,460KM,488KM,425KM,223KM
AC GUANAMBI,ac-guanambi,09/07/1974,5,Guanambi,BA,85353,-14.2231,-42.7799,512KM,468KM,484KM,220KM
AC IGUAI,ac-iguai,05/07/1974,5,Iguaí,BA,27006,-14.7528,-40.0894,298KM,302KM,262KM,82KM
AC IBIPEBA,ac-ibipeba,09/07/1974,5,Ibipeba,BA,18421,-11.6438,-42.0195,417KM,339KM,409KM,379KM
AC GLORIA,ac-gloria,09/07/1974,5,Glória,BA,15247,-9.34382,-38.2544,373KM,334KM,404KM,674KM
AC INSTAL,ac-instal,07/12/2009,1,Ubatã,BA,27481,-14.2063,-39.5207,212KM,224KM,176KM,160KM
AC ITAGI,ac-itagi,05/07/1974,5,Itagi,BA,12140,-14.1615,-40.0131,245KM,239KM,211KM,118KM
AC MALHADA DE PEDRAS,ac-malhada-de-pedras,04/07/1974,5,Malhada de Pedras,BA,8326,-14.3847,-41.8842,429KM,395KM,399KM,124KM
AC ITAMARI,ac-itamari,05/12/1977,5,Itamari,BA,7971,-13.7782,-39.683,190KM,185KM,156KM,173KM
AC JUSSARI,ac-jussari,21/07/1983,5,Jussari,BA,5706,-15.192,-39.491,305KM,330KM,269KM,150KM
AC ITAGUACU DA BAHIA,ac-itaguacu-da-bahia,24/10/2003,5,Itaguaçu da Bahia,BA,14650,-11.0147,-42.3997,480KM,398KM,475KM,459KM
AC ITINGA,ac-itinga,14/08/2007,5,Lauro de Freitas,BA,204669,-12.8978,-38.321,22KM,99KM,21KM,348KM
AC MARAU,ac-marau,04/07/1974,5,Maraú,BA,20664,-14.1035,-39.0137,173KM,204KM,138KM,214KM
AC MUNIZ FERREIRA,ac-muniz-ferreira,17/07/1974,5,Muniz Ferreira,BA,7464,-13.0092,-39.1092,92KM,84KM,66KM,278KM
AC MATA ESCURA,ac-mata-escura,24/04/2009,5,Salvador,BA,2900319,-12.9718,-38.5011,36KM,93KM,0KM,328KM
AC NOVA REDENCAO,ac-nova-redencao,03/11/1993,5,Nova Redenção,BA,9126,-12.815,-41.0748,298KM,237KM,279KM,229KM
AC MATINA,ac-matina,22/08/2002,5,Matina,BA,12359,-13.9109,-42.8439,508KM,459KM,482KM,240KM
AC MILAGRES,ac-milagres,17/07/1974,5,Milagres,BA,10838,-12.8646,-39.8611,167KM,118KM,148KM,246KM
AC PINDAI,ac-pindai,17/07/1974,5,Pindaí,BA,16308,-14.4921,-42.686,513KM,474KM,484KM,202KM
AC PALMAS DE MONTE ALTO,ac-palmas-de-monte-alto,17/07/1974,5,Palmas de Monte Alto,BA,21840,-14.2676,-43.1609,553KM,507KM,525KM,258KM
AC RAFAEL JAMBEIRO,ac-rafael-jambeiro,20/01/1987,5,Rafael Jambeiro,BA,22643,-12.4053,-39.5007,132KM,60KM,125KM,309KM
AC POJUCA,ac-pojuca,17/07/1974,5,Pojuca,BA,40401,-12.4303,-38.3374,30KM,71KM,63KM,382KM
AC QUEIMADAS,ac-queimadas,17/07/1974,5,Queimadas,BA,25428,-10.9736,-39.6293,238KM,161KM,254KM,452KM
AC SANTA LUZIA,ac-santa-luzia,04/12/1986,5,Santa Luzia,BA,12308,-15.4342,-39.3287,323KM,354KM,288KM,175KM
AC RIO DO PIRES,ac-rio-do-pires,17/07/1974,5,Rio do Pires,BA,11672,-13.1185,-42.2902,432KM,373KM,411KM,248KM
AC SANTALUZ,ac-santaluz,17/07/1974,5,Santaluz,BA,37704,-11.2508,-39.375,197KM,121KM,214KM,431KM
AC SAO FRANCISCO DO CONDE,ac-sao-francisco-do-conde,17/07/1974,5,São Francisco do Conde,BA,40664,-12.6183,-38.6786,39KM,50KM,44KM,341KM
AC SAUBARA,ac-saubara,17/07/1974,5,Saubara,BA,12163,-12.7387,-38.7625,48KM,57KM,38KM,325KM
AC SENTO SE,ac-sento-se,17/07/1974,5,Sento Sé,BA,41279,-9.74138,-41.8786,507KM,423KM,513KM,580KM
AC PLANALTINO,ac-planaltino,05/12/1977,5,Planaltino,BA,9415,-13.2618,-40.3695,230KM,188KM,205KM,185KM
AC SERRA DOURADA,ac-serra-dourada,17/07/1974,5,Serra Dourada,BA,17261,-12.759,-43.9504,610KM,544KM,591KM,408KM
AC SUMARE,ac-sumare,03/11/1993,5,Salvador,BA,2900319,-12.9718,-38.5011,36KM,93KM,0KM,328KM
AC SERROLANDIA,ac-serrolandia,10/04/1979,5,Serrolândia,BA,13490,-11.4085,-40.2983,258KM,173KM,261KM,388KM
AC SIMOES FILHO,ac-simoes-filho,17/07/1974,5,Simões Filho,BA,137117,-12.7866,-38.4029,13KM,84KM,23KM,349KM
AC TRANSPORTES E TURISMO,ac-transportes-e-turismo,14/12/2010,1,Salvador,BA,2900319,-12.9718,-38.5011,36KM,93KM,0KM,328KM
AC TEOFILANDIA,ac-teofilandia,21/07/1983,5,Teofilândia,BA,22590,-11.4827,-38.9913,153KM,87KM,174KM,425KM
AC TREMEDAL,ac-tremedal,17/07/1974,5,Tremedal,BA,15996,-14.9736,-41.4142,420KM,402KM,386KM,63KM
AC VARZEA DA ROCA,ac-varzea-da-roca,20/01/1987,5,Várzea da Roça,BA,14135,-11.6005,-40.1328,231KM,147KM,233KM,371KM
ACAAJA,acaaja,14/05/1998,5,Jacobina,BA,80749,-11.1812,-40.5117,291KM,207KM,295KM,411KM
AC XIQUE XIQUE,ac-xique-xique,17/07/1974,5,Xique-Xique,BA,46562,-10.823,-42.7245,521KM,439KM,516KM,492KM
ACAAR,acaar,30/09/2003,5,Itiúba,BA,36140,-10.6948,-39.8446,277KM,199KM,292KM,476KM
ACAC,acac,24/05/2002,5,Caldeirão Grande,BA,13452,-11.0208,-40.2956,284KM,200KM,291KM,431KM
ACA,aca,06/08/1998,5,Souto Soares,BA,17118,-12.088,-41.6427,366KM,291KM,354KM,320KM
AC VALENCA,ac-valenca,17/07/1974,5,Valença,BA,97873,-13.3669,-39.073,110KM,123KM,76KM,253KM
ACACV,acacv,11/07/2007,5,Monte Santo,BA,49145,-10.4374,-39.3321,274KM,207KM,296KM,518KM
ACADEMIA ACAO,academia-acao,24/09/2009,1,Salvador,BA,2900319,-12.9718,-38.5011,36KM,93KM,0KM,328KM
ACADEMIA BELLA FORMA,academia-bella-forma,25/11/1996,1,Luís Eduardo Magalhães,BA,92671,-12.0956,-45.7866,812KM,741KM,795KM,614KM
ACADEMIA CORPO EM FORMA,academia-corpo-em-forma,31/12/2008,1,Baixa Grande,BA,20431,-11.9519,-40.169,216KM,135KM,213KM,332KM
ACADEMIA BOA FORMA,academia-boa-forma,17/08/2004,1,Bom Jesus da Lapa,BA,70151,-13.2506,-43.4108,555KM,495KM,533KM,329KM
ACADEMIA AUTO ESTIMA,academia-auto-estima,30/12/2011,1,Jacobina,BA,80749,-11.1812,-40.5117,291KM,207KM,295KM,411KM
ACADEMIA BELLA VITA,academia-bella-vita,11/04/2008,1,Salvador,BA,2900319,-12.9718,-38.5011,36KM,93KM,0KM,328KM
ACADEMIA EQUILIBRIO FITNESS,academia-equilibrio-fitness,10/01/2012,1,Itagi,BA,12140,-14.1615,-40.0131,245KM,239KM,211KM,118KM
ACADEMIA DE GISNASTICA & MUSCULACAO ARENA I,academia-de-gisnastica-musculacao-arena-i,05/12/2008,1,Camaçari,BA,309208,-12.6996,-38.3263,0KM,85KM,36KM,362KM
ACADEMIA INFINITI,academia-infiniti,24/02/2010,1,Euclides da Cunha,BA,61112,-10.5078,-39.0153,255KM,196KM,280KM,523KM
ACADEMIA EMBALO CORPORE,academia-embalo-corpore,16/08/2000,1,Cruz das Almas,BA,63923,-12.6675,-39.1008,84KM,47KM,73KM,308KM
ACADEMIA ESCALADA DA SAUDE,academia-escalada-da-saude,04/05/2012,1,Mucugê,BA,8725,-13.0053,-41.3703,332KM,274KM,311KM,214KM
ACADEMIA JC,academia-jc,30/12/1996,1,Ibicoara,BA,19990,-13.4059,-41.284,330KM,282KM,305KM,169KM
ACADEMIA ERGHOS,academia-erghos,20/04/2009,1,Livramento de Nossa Senhora,BA,46372,-13.6369,-41.8432,395KM,348KM,370KM,173KM
ACADEMIA METAMORFOSE FITNESS,academia-metamorfose-fitness,27/06/1997,5,Camaçari,BA,309208,-12.6996,-38.3263,0KM,85KM,36KM,362KM
ACADEMIA PLOC CENTER,academia-ploc-center,28/02/2002,1,Salvador,BA,2900319,-12.9718,-38.5011,36KM,93KM,0KM,328KM
ACADEMIA JILCINHO,academia-jilcinho,01/04/2009,1,Coração de Maria,BA,22391,-12.2333,-38.7487,69KM,24KM,86KM,369KM
ACADEMIA N K FITNESS,academia-n-k-fitness,08/01/2010,1,Cruz das Almas,BA,63923,-12.6675,-39.1008,84KM,47KM,73KM,308KM
ACADEMIA MUSCULOS,academia-musculos,19/08/2003,1,Camaçari,BA,309208,-12.6996,-38.3263,0KM,85KM,36KM,362KM
ACADEMIA POINT FITNESS,academia-point-fitness,04/02/2011,1,Antas,BA,19659,-10.3856,-38.3401,257KM,220KM,288KM,566KM
ACADEMIA POS TREINO,academia-pos-treino,19/04/2012,1,Caetité,BA,51184,-14.0684,-42.4861,476KM,432KM,449KM,197KM
ACADEMIA SHALON FITNESS,academia-shalon-fitness,09/02/2012,1,São Sebastião do Passé,BA,44554,-12.5123,-38.4905,27KM,58KM,51KM,364KM
ACADEMIA SUPERACAO,academia-superacao,16/03/2004,1,Barreiras,BA,158432,-12.1439,-44.9968,726KM,655KM,710KM,539KM
ACADEMIA WINNER,academia-winner,18/11/2011,1,Feira de Santana,BA,624107,-12.2664,-38.9663,84KM,0KM,93KM,352KM
ACAI,acai,22/10/1997,5,Inhambupe,BA,40720,-11.781,-38.355,102KM,86KM,133KM,435KM
ACAJ,acaj,18/04/2008,5,Tapiramutá,BA,16939,-11.8475,-40.7927,284KM,204KM,278KM,335KM
ACAJUTIBA PREFEITURA GABINETE DO PREFEITO,acajutiba-prefeitura-gabinete-do-prefeito,30/12/1974,5,Acajutiba,BA,15214,-11.6575,-38.0197,121KM,123KM,155KM,468KM
ACAFV,acafv,22/01/2001,5,Sobradinho,BA,23274,-9.45024,-40.8145,451KM,372KM,465KM,602KM
ACADEMIA UIBAI FITNESS,academia-uibai-fitness,04/12/2009,1,Uibaí,BA,13894,-11.3394,-42.1354,440KM,359KM,434KM,416KM
ACADEMIA PRAZER DE DANCAR,academia-prazer-de-dancar,24/09/2010,1,Salvador,BA,2900319,-12.9718,-38.5011,36KM,93KM,0KM,328KM
ACAL,acal,23/11/1995,5,Araci,BA,54903,-11.3253,-38.9584,167KM,105KM,190KM,442KM
ACALV,acalv,14/07/1998,5,América Dourada,BA,16086,-11.4429,-41.439,365KM,284KM,361KM,385KM
ACAMPO HOLDING - COMPRA E VENDA DE IMOVEIS LTDA,acampo-holding-compra-e-venda-de-imoveis-ltda,27/07/1995,5,Jequié,BA,156277,-13.8509,-40.0877,230KM,214KM,198KM,139KM
ACAMB,acamb,23/02/1987,5,Presidente Dutra,BA,15180,-11.2923,-41.9843,427KM,345KM,421KM,415KM
ACAO TUPINAMBA,acao-tupinamba,29/08/2003,5,Ilhéus,BA,157639,-14.793,-39.046,246KM,281KM,211KM,193KM
ACAPS,acaps,25/10/2004,5,Umburanas,BA,19573,-10.7339,-41.3234,392KM,308KM,394KM,462KM
ACAO SOCIAL BEIJA-FLOR,acao-social-beija-flor,22/08/2006,5,Nazaré,BA,28661,-13.0235,-39.0108,83KM,84KM,56KM,284KM
ACAO DISTRIBUIDORA,acao-distribuidora,10/01/2001,3,Vitória da Conquista,BA,343643,-14.8615,-40.8442,364KM,353KM,330KM,0KM
ACAL PRODUCOES,acal-producoes,08/11/1999,1,Salvador,BA,2900319,-12.9718,-38.5011,36KM,93KM,0KM,328KM
ACAMPAMENTO MAANAIM,acampamento-maanaim,21/08/1981,1,Santa Bárbara,BA,20971,-11.9515,-38.9681,108KM,35KM,124KM,381KM
ACAPSAL,acapsal,29/04/2003,5,Paulo Afonso,BA,119213,-9.3983,-38.2216,367KM,329KM,399KM,670KM
ACARAJE DA BETE,acaraje-da-bete,04/01/2007,1,Lauro de Freitas,BA,204669,-12.8978,-38.321,22KM,99KM,21KM,348KM
ACAQSA,acaqsa,27/12/2000,5,Campo Formoso,BA,71754,-10.5105,-40.32,326KM,244KM,337KM,487KM
ACAP,acap,30/12/1993,5,Canavieiras,BA,30722,-15.6722,-38.9536,337KM,379KM,304KM,222KM
ACARAJE DA TATY,acaraje-da-taty,17/05/2010,1,Salvador,BA,2900319,-12.9718,-38.5011,36KM,93KM,0KM,328KM
ACARAJE DI MAINHA,acaraje-di-mainha,22/10/2010,1,Ipiaú,BA,45969,-14.1226,-39.7353,220KM,223KM,185KM,145KM
ACAS,acas,21/05/1991,5,Salvador,BA,2900319,-12.9718,-38.5011,36KM,93KM,0KM,328KM
ACARAJE DA NOEMIA,acaraje-da-noemia,17/04/2012,1,Lauro de Freitas,BA,204669,-12.8978,-38.321,22KM,99KM,21KM,348KM
ACASA,acasa,13/02/1998,5,Morpará,BA,8476,-11.5569,-43.2766,552KM,475KM,541KM,451KM
ACAPSD,acapsd,29/04/2003,5,Paulo Afonso,BA,119213,-9.3983,-38.2216,367KM,329KM,399KM,670KM
ACASSELB,acasselb,17/10/2000,5,Monte Santo,BA,49145,-10.4374,-39.3321,274KM,207KM,296KM,518KM
ACAVAM,acavam,29/06/2001,5,Queimadas,BA,25428,-10.9736,-39.6293,238KM,161KM,254KM,452KM
ACBADEVIC,acbadevic,17/11/1987,5,Vitória da Conquista,BA,343643,-14.8615,-40.8442,364KM,353KM,330KM,0KM
ACATAR,acatar,26/08/1994,5,Caculé,BA,23407,-14.5003,-42.2229,468KM,432KM,438KM,154KM
ACBAFS,acbafs,23/08/2005,5,Feira de Santana,BA,624107,-12.2664,-38.9663,84KM,0KM,93KM,352KM
ACAT,acat,18/07/2004,5,Lamarão,BA,8078,-11.773,-38.887,120KM,56KM,140KM,403KM
ACB,acb,10/08/1990,5,Livramento de Nossa Senhora,BA,46372,-13.6369,-41.8432,395KM,348KM,370KM,173KM
ACBPD,acbpd,29/04/1996,5,Macaúbas,BA,50481,-13.0186,-42.6945,475KM,414KM,454KM,286KM
ACBHA,acbha,07/08/1998,5,São Gonçalo dos Campos,BA,38315,-12.4331,-38.9663,75KM,19KM,78KM,337KM
ACBCAA,acbcaa,18/10/2006,5,Capela do Alto Alegre,BA,11597,-11.6658,-39.8349,200KM,116KM,205KM,372KM
ACBE,acbe,26/05/1987,5,Retirolândia,BA,14588,-11.4832,-39.4234,180KM,100KM,193KM,406KM
ACBSPA,acbspa,27/04/2005,5,Salvador,BA,2900319,-12.9718,-38.5011,36KM,93KM,0KM,328KM
ACC,acc,27/12/2006,5,Riachão do Jacuípe,BA,33498,-11.8067,-39.3818,152KM,68KM,161KM,374KM
ACC MATERIAIS DE CONSTRUCAO E TRANSPORTES,acc-materiais-de-construcao-e-transportes,22/04/1992,3,Feira de Santana,BA,624107,-12.2664,-38.9663,84KM,0KM,93KM,352KM
ACCBCZP,accbczp,15/05/2006,5,Feira de Santana,BA,624107,-12.2664,-38.9663,84KM,0KM,93KM,352KM
ACCBS,accbs,11/09/1997,5,Biritinga,BA,15989,-11.6072,-38.8051,132KM,75KM,155KM,423KM
ACCBV,accbv,24/11/1988,5,Várzea da Roça,BA,14135,-11.6005,-40.1328,231KM,147KM,233KM,371KM
ACCGA,accga,06/07/1998,5,Feira de Santana,BA,624107,-12.2664,-38.9663,84KM,0KM,93KM,352KM
ACCCBA,acccba,17/11/1988,5,Salvador,BA,2900319,-12.9718,-38.5011,36KM,93KM,0KM,328KM
ACCC,accc,17/11/2008,5,Valente,BA,29111,-11.4062,-39.457,189KM,110KM,203KM,412KM
ACCM,accm,09/12/2002,5,Porto Seguro,BA,152529,-16.4435,-39.0643,424KM,465KM,391KM,260KM
ACCSA,accsa,18/05/1990,5,Macaúbas,BA,50481,-13.0186,-42.6945,475KM,414KM,454KM,286KM
ACD,acd,13/07/2011,5,Itapebi,BA,10173,-15.9551,-39.5329,385KM,415KM,350KM,186KM
ACCS SHOPPING CENTER,accs-shopping-center,07/03/1996,1,Salvador,BA,2900319,-12.9718,-38.5011,36KM,93KM,0KM,328KM
ACDP,acdp,07/02/2011,5,Prado,BA,28214,-17.3364,-39.2227,525KM,564KM,492KM,326KM
ACE,ace,28/01/2011,5,Ruy Barbosa,BA,30900,-12.2816,-40.4931,240KM,166KM,229KM,289KM
ACDCS,acdcs,07/12/2002,5,Retirolândia,BA,14588,-11.4832,-39.4234,180KM,100KM,193KM,406KM
ACE ALLPURPOSE COMUNICATION & EXCHANGE,ace-allpurpose-comunication-exchange,03/03/1998,1,Itabuna,BA,214123,-14.7876,-39.2781,254KM,282KM,219KM,169KM
ACEES,acees,29/01/2007,5,Nova Fátima,BA,7830,-11.6031,-39.6302,187KM,103KM,195KM,385KM
ACEMAP,acemap,26/05/1999,5,Biritinga,BA,15989,-11.6072,-38.8051,132KM,75KM,155KM,423KM
ACEB,aceb,28/10/2004,5,Salvador,BA,2900319,-12.9718,-38.5011,36KM,93KM,0KM,328KM
ACEPA,acepa,01/12/1997,5,Caetité,BA,51184,-14.0684,-42.4861,476KM,432KM,449KM,197KM
ACEK,acek,29/10/1998,5,Biritinga,BA,15989,-11.6072,-38.8051,132KM,75KM,155KM,423KM
ACERTE CONCURSOS,acerte-concursos,05/02/2009,3,Salvador,BA,2900319,-12.9718,-38.5011,36KM,93KM,0KM,328KM
ACEROLA MODA INFANTIL,acerola-moda-infantil,09/09/2009,1,Feira de Santana,BA,624107,-12.2664,-38.9663,84KM,0KM,93KM,352KM
ACESSORAUTO,acessorauto,17/03/2003,1,Itapetinga,BA,77408,-15.2475,-40.2482,352KM,360KM,316KM,77KM
ACE - ASSOCIACAO COMUNIDADE ESCOLAR,ace-associacao-comunidade-escolar,30/04/1999,5,Macaúbas,BA,50481,-13.0186,-42.6945,475KM,414KM,454KM,286KM
ACESSO INFORMATICA,acesso-informatica,16/04/1999,1,Irecê,BA,74050,-11.3033,-41.8535,413KM,331KM,408KM,410KM
ACESSUBA,acessuba,25/04/2000,5,Caetité,BA,51184,-14.0684,-42.4861,476KM,432KM,449KM,197KM
ACFC,acfc,19/06/1998,5,Brumado,BA,67468,-14.2021,-41.6696,399KM,364KM,370KM,115KM
ACFPBS,acfpbs,17/04/2000,5,Sobradinho,BA,23274,-9.45024,-40.8145,451KM,372KM,465KM,602KM
ACFLEX EQUIPAMENTOS INDUSTRIAIS,acflex-equipamentos-industriais,15/03/2010,1,Salvador,BA,2900319,-12.9718,-38.5011,36KM,93KM,0KM,328KM
ACFPTNP,acfptnp,03/09/1999,5,Casa Nova,BA,73092,-9.16408,-40.974,487KM,408KM,501KM,634KM
ACESSO LIVRE INFORMATICA,acesso-livre-informatica,16/09/2004,1,Cruz das Almas,BA,63923,-12.6675,-39.1008,84KM,47KM,73KM,308KM
ACI,aci,25/03/1983,1,Itabuna,BA,214123,-14.7876,-39.2781,254KM,282KM,219KM,169KM
ACHIEVE,achieve,18/11/2010,1,Vitória da Conquista,BA,343643,-14.8615,-40.8442,364KM,353KM,330KM,0KM
ACFMD,acfmd,09/05/1996,5,Ipirá,BA,59281,-12.1561,-39.7359,164KM,85KM,162KM,324KM
ACIAJ,aciaj,20/06/1996,5,Jaguarari,BA,33915,-10.2569,-40.1999,339KM,261KM,354KM,517KM
ACIMAC,acimac,19/06/1995,5,Macaúbas,BA,50481,-13.0186,-42.6945,475KM,414KM,454KM,286KM
ACJB,acjb,06/05/2000,5,Ribeira do Pombal,BA,54097,-10.8373,-38.5382,208KM,166KM,237KM,512KM
ACLGBA,aclgba,10/11/1997,5,Cruz das Almas,BA,63923,-12.6675,-39.1008,84KM,47KM,73KM,308KM
ACLF,aclf,27/04/2000,5,Retirolândia,BA,14588,-11.4832,-39.4234,180KM,100KM,193KM,406KM
ACLC,aclc,01/11/2005,5,São Domingos,BA,9085,-11.4649,-39.5268,189KM,108KM,201KM,403KM
ACLG,aclg,31/01/2000,5,Miguel Calmon,BA,25771,-11.4299,-40.6031,284KM,201KM,285KM,382KM
ACLIMAR CLIMATIZAAO,aclimar-climatizaao,22/06/2010,1,Salvador,BA,2900319,-12.9718,-38.5011,36KM,93KM,0KM,328KM
ACMB,acmb,18/09/2001,5,Itabuna,BA,214123,-14.7876,-39.2781,254KM,282KM,219KM,169KM
ACMV,acmv,08/05/2001,5,Bonito,BA,16999,-11.9668,-41.2647,329KM,252KM,320KM,325KM
ACO BRUMADO,aco-brumado,28/08/2008,3,Brumado,BA,67468,-14.2021,-41.6696,399KM,364KM,370KM,115KM
ACO FORTE,aco-forte,20/07/2010,1,Vera Cruz,BA,44185,-12.9568,-38.6153,42KM,86KM,12KM,320KM
ACMJT,acmjt,12/08/2010,5,Alagoinhas,BA,153023,-12.1335,-38.4208,64KM,61KM,94KM,400KM
ACOB,acob,29/11/2005,5,Paulo Afonso,BA,119213,-9.3983,-38.2216,367KM,329KM,399KM,670KM
ACO CAMACARI,aco-camacari,11/03/2011,1,Dias d'Ávila,BA,83705,-12.6187,-38.2926,10KM,83KM,45KM,371KM
ACMP,acmp,16/01/1998,5,Iraquara,BA,25728,-12.2429,-41.6155,360KM,288KM,347KM,303KM
ACOBB,acobb,29/10/1987,5,Alagoinhas,BA,153023,-12.1335,-38.4208,64KM,61KM,94KM,400KM
ACOBES,acobes,30/05/1996,5,Ipupiara,BA,9954,-11.8219,-42.6179,476KM,400KM,464KM,388KM
ACOBID,acobid,14/02/2005,5,São Sebastião do Passé,BA,44554,-12.5123,-38.4905,27KM,58KM,51KM,364KM
ACOFLEX,acoflex,12/11/1996,3,Dom Basílio,BA,12281,-13.7565,-41.7677,391KM,347KM,365KM,158KM
ACOJAB,acojab,20/06/2005,5,Antônio Gonçalves,BA,11955,-10.5767,-40.2785,317KM,236KM,329KM,480KM
ACOF - ASSISTENCIA CLINICA OFTALMOLOGICA,acof-assistencia-clinica-oftalmologica,17/05/2001,3,Salvador,BA,2900319,-12.9718,-38.5011,36KM,93KM,0KM,328KM
ACOJAP,acojap,27/03/2003,5,Igaporã,BA,15661,-13.774,-42.7155,491KM,441KM,465KM,235KM
ACOGUE DO CEZAR,acogue-do-cezar,21/07/2008,1,Macaúbas,BA,50481,-13.0186,-42.6945,475KM,414KM,454KM,286KM
ACOM DIGITAL,acom-digital,11/08/2005,1,Barreiras,BA,158432,-12.1439,-44.9968,726KM,655KM,710KM,539KM
ACOMBACE,acombace,03/07/1998,5,Licínio de Almeida,BA,12357,-14.6842,-42.5095,505KM,470KM,474KM,180KM
ACOKORT INDUSTRIA E COMERCIO DE MOVEIS LTDA,acokort-industria-e-comercio-de-moveis-ltda,25/03/1998,1,Salvador,BA,2900319,-12.9718,-38.5011,36KM,93KM,0KM,328KM
ACOMQST,acomqst,30/01/2007,5,Campo Formoso,BA,71754,-10.5105,-40.32,326KM,244KM,337KM,487KM
ACOMAC-BA,acomac-ba,31/01/1978,5,Salvador,BA,2900319,-12.9718,-38.5011,36KM,93KM,0KM,328KM
ACOMT,acomt,08/07/1989,5,Miguel Calmon,BA,25771,-11.4299,-40.6031,284KM,201KM,285KM,382KM
ACONCHEGO DO EGIDIO,aconchego-do-egidio,29/11/2002,1,Paulo Afonso,BA,119213,-9.3983,-38.2216,367KM,329KM,399KM,670KM
ACOPA,acopa,05/09/2006,5,Araci,BA,54903,-11.3253,-38.9584,167KM,105KM,190KM,442KM
ACOPALG,acopalg,01/08/2005,5,Caculé,BA,23407,-14.5003,-42.2229,468KM,432KM,438KM,154KM
ACOMPAR,acompar,05/02/1987,5,Jacobina,BA,80749,-11.1812,-40.5117,291KM,207KM,295KM,411KM
ACOS CAMPINENSE,acos-campinense,21/08/2009,1,Euclides da Cunha,BA,61112,-10.5078,-39.0153,255KM,196KM,280KM,523KM
ACOS TRANSPORTES,acos-transportes,12/04/2006,1,Santaluz,BA,37704,-11.2508,-39.375,197KM,121KM,214KM,431KM
ACOPAT,acopat,01/02/2001,5,Capim Grosso,BA,31055,-11.3797,-40.0089,234KM,150KM,241KM,397KM
ACONCHEGO,aconchego,24/07/2006,1,Salvador,BA,2900319,-12.9718,-38.5011,36KM,93KM,0KM,328KM
ACOUGUE BOI BOM E MERCADINHO DOIS IRMAOS,acougue-boi-bom-e-mercadinho-dois-irmaos,29/12/2000,1,Boquira,BA,21486,-12.8205,-42.7324,478KM,414KM,459KM,304KM
ACOTANQ,acotanq,03/12/2003,1,Glória,BA,15247,-9.34382,-38.2544,373KM,334KM,404KM,674KM
ACOUGUE BOI BONITO,acougue-boi-bonito,16/04/2008,1,Barreiras,BA,158432,-12.1439,-44.9968,726KM,655KM,710KM,539KM
ACOPAVIN,acopavin,31/05/1988,5,Salvador,BA,2900319,-12.9718,-38.5011,36KM,93KM,0KM,328KM
ACOUGUE CARNE DO SERTAO,acougue-carne-do-sertao,22/03/2011,1,Porto Seguro,BA,152529,-16.4435,-39.0643,424KM,465KM,391KM,260KM
ACOUGUE BOI BONITO,acougue-boi-bonito,09/05/2008,1,Barreiras,BA,158432,-12.1439,-44.9968,726KM,655KM,710KM,539KM
ACOUGUE CENTRAL,acougue-central,01/08/2008,1,Nova Viçosa,BA,44170,-17.8926,-39.3743,589KM,627KM,555KM,372KM
ACOUGUE DO JOHNYE,acougue-do-johnye,02/04/2012,1,Morro do Chapéu,BA,35466,-11.5488,-41.1565,333KM,251KM,328KM,370KM
ACOUGUE CONDOMINIO 2000,acougue-condominio-2000,23/11/2010,1,Porto Seguro,BA,152529,-16.4435,-39.0643,424KM,465KM,391KM,260KM
ACOUGUE DO MARCOS,acougue-do-marcos,13/05/2010,1,Central,BA,17293,-11.1376,-42.1116,446KM,364KM,441KM,436KM
ACOUGUE E MERCEARIA CARNE BOA,acougue-e-mercearia-carne-boa,13/02/1998,1,Itapebi,BA,10173,-15.9551,-39.5329,385KM,415KM,350KM,186KM
ACOUGUE E MERCADO O PAO CASEIRO,acougue-e-mercado-o-pao-caseiro,17/04/2009,1,Amargosa,BA,37631,-13.0215,-39.602,143KM,109KM,119KM,244KM
ACOUGUE E FRIOS DO NENGA,acougue-e-frios-do-nenga,08/11/2006,1,Caraíbas,BA,8659,-14.7177,-41.2603,389KM,369KM,356KM,47KM
ACOUGUE DO SISI,acougue-do-sisi,31/01/2011,1,Caravelas,BA,22166,-17.7268,-39.2597,568KM,608KM,535KM,361KM
ACOUGUE SAO JORGE,acougue-sao-jorge,25/01/1996,1,Salvador,BA,2900319,-12.9718,-38.5011,36KM,93KM,0KM,328KM
ACOUGUE E MERCEARIA CENTER CARNE D R,acougue-e-mercearia-center-carne-d-r,20/07/2006,1,Itapé,BA,8300,-14.8876,-39.4239,271KM,296KM,235KM,153KM
ACOUGUE RODRIGUES,acougue-rodrigues,14/12/2011,1,Vitória da Conquista,BA,343643,-14.8615,-40.8442,364KM,353KM,330KM,0KM
ACOUGUE RESTAURANTE E HOTEL XAVIER,acougue-restaurante-e-hotel-xavier,14/12/2011,1,Bom Jesus da Lapa,BA,70151,-13.2506,-43.4108,555KM,495KM,533KM,329KM
ACOUGUE MIRANDA,acougue-miranda,18/03/2011,1,Ibotirama,BA,27076,-12.1779,-43.2167,534KM,462KM,519KM,393KM
ACOUGUE SOUZA,acougue-souza,19/05/2012,1,Urandi,BA,16672,-14.7678,-42.6498,522KM,487KM,492KM,194KM
ACP SEGURANCA,acp-seguranca,09/06/1999,5,Lauro de Freitas,BA,204669,-12.8978,-38.321,22KM,99KM,21KM,348KM
ACOUGUE SAO JOSE,acougue-sao-jose,17/02/1998,1,Santaluz,BA,37704,-11.2508,-39.375,197KM,121KM,214KM,431KM
ACOUGUE MENDES,acougue-mendes,19/04/2010,1,Carinhanha,BA,29118,-14.2985,-43.7724,617KM,569KM,590KM,321KM
ACPCRSF,acpcrsf,14/01/1999,5,Paulo Afonso,BA,119213,-9.3983,-38.2216,367KM,329KM,399KM,670KM
ACPAFSP,acpafsp,07/05/2002,5,Capim Grosso,BA,31055,-11.3797,-40.0089,234KM,150KM,241KM,397KM
ACPAQA,acpaqa,04/01/2012,5,Santaluz,BA,37704,-11.2508,-39.375,197KM,121KM,214KM,431KM
ACPHML,acphml,27/11/2006,5,Santaluz,BA,37704,-11.2508,-39.375,197KM,121KM,214KM,431KM
ACPC,acpc,17/07/1996,5,Remanso,BA,41324,-9.61944,-42.0848,533KM,449KM,538KM,598KM
ACPPCLFLC,acppclflc,30/11/2000,5,Macaúbas,BA,50481,-13.0186,-42.6945,475KM,414KM,454KM,286KM
ACPPRCQL DE SAUDE,acpprcql-de-saude,04/10/2007,5,Mirangaba,BA,18603,-10.961,-40.574,311KM,227KM,317KM,435KM
ACPD,acpd,10/10/2000,5,Presidente Dutra,BA,15180,-11.2923,-41.9843,427KM,345KM,421KM,415KM
ACPS CONTABILIDADE,acps-contabilidade,26/08/2009,3,Salvador,BA,2900319,-12.9718,-38.5011,36KM,93KM,0KM,328KM
ACQBDA,acqbda,19/11/2009,5,Jacobina,BA,80749,-11.1812,-40.5117,291KM,207KM,295KM,411KM
ACPVC,acpvc,20/06/1995,5,Anagé,BA,21229,-14.6151,-41.1356,372KM,352KM,339KM,42KM
ACPPR DE MUQUEM DO PEIXE,acppr-de-muquem-do-peixe,29/10/1996,5,Canarana,BA,26468,-11.6858,-41.7677,390KM,311KM,382KM,367KM
ACPPRVM,acpprvm,13/11/1995,5,Paulo Afonso,BA,119213,-9.3983,-38.2216,367KM,329KM,399KM,670KM
ACQEP,acqep,27/02/2003,5,Cachoeira,BA,33659,-12.5994,-38.9587,69KM,37KM,65KM,323KM
ACPRBV,acprbv,25/01/1996,5,Pindaí,BA,16308,-14.4921,-42.686,513KM,474KM,484KM,202KM
ACPRV,acprv,16/07/2008,5,Boquira,BA,21486,-12.8205,-42.7324,478KM,414KM,459KM,304KM
ACQV,acqv,22/12/2009,5,Seabra,BA,44370,-12.4169,-41.7722,375KM,305KM,360KM,290KM
ACR - ADMINISTRACAO DE CONDOMINIOS RESIDENCIAIS,acr-administracao-de-condominios-residenciais,12/03/1999,1,Salvador,BA,2900319,-12.9718,-38.5011,36KM,93KM,0KM,328KM
ACQUABAHIA,acquabahia,06/05/2004,1,Teixeira de Freitas,BA,164290,-17.5399,-39.74,560KM,592KM,525KM,321KM
ACR CONSTRUTORA,acr-construtora,06/11/2007,3,Lauro de Freitas,BA,204669,-12.8978,-38.321,22KM,99KM,21KM,348KM
ACRC,acrc,27/01/1998,5,Varzedo,BA,8734,-12.9672,-39.3919,119KM,91KM,97KM,262KM
ACQUATIME AMBIENTAL,acquatime-ambiental,26/09/1997,3,Lauro de Freitas,BA,204669,-12.8978,-38.321,22KM,99KM,21KM,348KM
ACREC,acrec,12/04/2002,5,Aramari,BA,11519,-12.0884,-38.4969,70KM,55KM,98KM,398KM
ACRE CONTADORES ASSOCIADOS,acre-contadores-associados,19/10/1982,3,Salvador,BA,2900319,-12.9718,-38.5011,36KM,93KM,0KM,328KM
ACRIL SILK,acril-silk,21/05/1991,5,Salvador,BA,2900319,-12.9718,-38.5011,36KM,93KM,0KM,328KM
ACREDITE,acredite,23/08/2007,5,Vitória da Conquista,BA,343643,-14.8615,-40.8442,364KM,353KM,330KM,0KM
ACRMI,acrmi,21/06/2006,5,Ubaitaba,BA,18647,-14.303,-39.3222,208KM,230KM,173KM,175KM
ACRAPMAEPRE,acrapmaepre,03/03/2009,5,Laje,BA,24214,-13.1673,-39.4213,130KM,112KM,102KM,243KM
ACQUAAROMA,acquaaroma,29/05/2001,1,Lauro de Freitas,BA,204669,-12.8978,-38.321,22KM,99KM,21KM,348KM
ACROB,acrob,27/12/1999,5,Oliveira dos Brejinhos,BA,21797,-12.3132,-42.8969,498KM,427KM,482KM,359KM
ACRIVAC,acrivac,09/11/2011,5,Santa Maria da Vitória,BA,39707,-13.3859,-44.2011,642KM,582KM,619KM,396KM
ACS MATOS ASSISTENCIA TECNICA E REPRESENTACOES,acs-matos-assistencia-tecnica-e-representacoes,05/06/1992,1,Jequié,BA,156277,-13.8509,-40.0877,230KM,214KM,198KM,139KM
ACRSB,acrsb,15/06/2005,5,Miguel Calmon,BA,25771,-11.4299,-40.6031,284KM,201KM,285KM,382KM
ACTIVE COSMETICOS E PERFUMARIA,active-cosmeticos-e-perfumaria,19/04/2002,5,Iaçu,BA,23950,-12.7666,-40.2056,204KM,146KM,186KM,243KM
ACSVER,acsver,03/10/2005,5,Juazeiro,BA,219544,-9.41622,-40.5033,435KM,358KM,451KM,607KM
ACTO,acto,02/09/1991,1,Salvador,BA,2900319,-12.9718,-38.5011,36KM,93KM,0KM,328KM
ACUCENA CHEIROSA BANDA SHOW,acucena-cheirosa-banda-show,17/03/2009,1,Ilhéus,BA,157639,-14.793,-39.046,246KM,281KM,211KM,193KM
ACTION FITNESS,action-fitness,22/12/2003,1,Salvador,BA,2900319,-12.9718,-38.5011,36KM,93KM,0KM,328KM
ACSB,acsb,15/01/2004,5,Vitória da Conquista,BA,343643,-14.8615,-40.8442,364KM,353KM,330KM,0KM
ACTS-DISTRIBUIDORA DE PARAFINAS LTDA,acts-distribuidora-de-parafinas-ltda,19/06/1995,1,Candeias,BA,87820,-12.6716,-38.5472,24KM,64KM,34KM,347KM
ACUPUNTURA TAVARES,acupuntura-tavares,20/07/2001,1,Salvador,BA,2900319,-12.9718,-38.5011,36KM,93KM,0KM,328KM
ADAFES RECUPERACAO DE CREDITOS E SERVICOS,adafes-recuperacao-de-creditos-e-servicos,23/05/2012,1,Araci,BA,54903,-11.3253,-38.9584,167KM,105KM,190KM,442KM
ADAFC,adafc,02/10/2008,5,Catu,BA,55222,-12.3513,-38.3791,39KM,64KM,70KM,385KM
ACVP,acvp,09/07/2004,5,Seabra,BA,44370,-12.4169,-41.7722,375KM,305KM,360KM,290KM
AD WAVE TELECOM,ad-wave-telecom,04/04/1995,1,Tucano,BA,50903,-10.9584,-38.7894,200KM,147KM,226KM,487KM
AD REPAROS & SERVICOS,ad-reparos-servicos,23/06/2010,1,Porto Seguro,BA,152529,-16.4435,-39.0643,424KM,465KM,391KM,260KM
ADAFI,adafi,21/05/2008,5,Conceição do Coité,BA,67394,-11.56,-39.2808,164KM,86KM,178KM,404KM
AD2,ad2,16/05/2012,1,Salvador,BA,2900319,-12.9718,-38.5011,36KM,93KM,0KM,328KM
ACVO,acvo,13/06/2003,5,Boquira,BA,21486,-12.8205,-42.7324,478KM,414KM,459KM,304KM
ACVQQ,acvqq,24/04/1998,5,Iraquara,BA,25728,-12.2429,-41.6155,360KM,288KM,347KM,303KM
ADAMES ELETRONICA,adames-eletronica,26/08/1992,1,Salvador,BA,2900319,-12.9718,-38.5011,36KM,93KM,0KM,328KM
ADB,adb,17/03/2005,5,Ilhéus,BA,157639,-14.793,-39.046,246KM,281KM,211KM,193KM
AD4 ENGENHARIA E SERVICOS,ad4-engenharia-e-servicos,14/08/2001,5,Ipiaú,BA,45969,-14.1226,-39.7353,220KM,223KM,185KM,145KM
ADBI,adbi,17/07/2006,5,Mirangaba,BA,18603,-10.961,-40.574,311KM,227KM,317KM,435KM
ADCOS COSMETICOS,adcos-cosmeticos,01/02/2007,3,Salvador,BA,2900319,-12.9718,-38.5011,36KM,93KM,0KM,328KM
ADCF,adcf,15/06/1998,5,Malhada,BA,16875,-14.3371,-43.7686,618KM,570KM,591KM,320KM
ADAO E EVA,adao-e-eva,11/11/2010,1,Porto Seguro,BA,152529,-16.4435,-39.0643,424KM,465KM,391KM,260KM
ADAO CONSTRUTOR,adao-construtor,07/12/2011,1,Barra,BA,54225,-11.0859,-43.1459,553KM,473KM,545KM,487KM
ADDEMBLEIA DE DEUS,addembleia-de-deus,30/10/2001,5,Boninal,BA,14518,-12.7069,-41.8286,380KM,315KM,362KM,262KM
ADDICIONE SOLUCOES CRIATIVAS,addicione-solucoes-criativas,15/04/2011,1,Simões Filho,BA,137117,-12.7866,-38.4029,13KM,84KM,23KM,349KM
ADEFIJ,adefij,24/09/2007,5,Jequié,BA,156277,-13.8509,-40.0877,230KM,214KM,198KM,139KM
ADCTLA,adctla,15/12/2005,5,Amargosa,BA,37631,-13.0215,-39.602,143KM,109KM,119KM,244KM
ADELBA,adelba,07/06/1984,5,Feira de Santana,BA,624107,-12.2664,-38.9663,84KM,0KM,93KM,352KM
ADECO,adeco,08/08/1990,5,Uauá,BA,23991,-9.83325,-39.4794,342KM,276KM,365KM,578KM
ADEILDA NAIL DESIGNER,adeilda-nail-designer,03/04/2012,1,Salvador,BA,2900319,-12.9718,-38.5011,36KM,93KM,0KM,328KM
ADEMVALE,ademvale,19/01/2001,5,Juazeiro,BA,219544,-9.41622,-40.5033,435KM,358KM,451KM,607KM
ADEP,adep,22/10/1991,5,Salvador,BA,2900319,-12.9718,-38.5011,36KM,93KM,0KM,328KM
ADECCA,adecca,09/08/2005,5,Caldeirão Grande,BA,13452,-11.0208,-40.2956,284KM,200KM,291KM,431KM
ADEMI BA,ademi-ba,20/10/1975,5,Salvador,BA,2900319,-12.9718,-38.5011,36KM,93KM,0KM,328KM
ADEQUA,adequa,06/09/1995,5,Iraquara,BA,25728,-12.2429,-41.6155,360KM,288KM,347KM,303KM
ADEPLANE,adeplane,05/05/1999,1,Cruz das Almas,BA,63923,-12.6675,-39.1008,84KM,47KM,73KM,308KM
ADELBA,adelba,07/06/1984,5,Senhor do Bonfim,BA,79813,-10.4594,-40.1865,321KM,241KM,334KM,495KM
ADERE ASSOCIADOS,adere-associados,09/10/1997,1,Ituberá,BA,28870,-13.7249,-39.1481,145KM,163KM,109KM,222KM
ADESAFUC,adesafuc,25/05/2007,5,Fátima,BA,17801,-10.616,-38.2239,232KM,200KM,264KM,550KM
ADESAL,adesal,06/09/2005,5,Salvador,BA,2900319,-12.9718,-38.5011,36KM,93KM,0KM,328KM
ADESA,adesa,01/11/1989,5,Araci,BA,54903,-11.3253,-38.9584,167KM,105KM,190KM,442KM
ADESAL,adesal,06/09/2005,5,Salvador,BA,2900319,-12.9718,-38.5011,36KM,93KM,0KM,328KM
ADESAL,adesal,27/08/2007,5,Salvador,BA,2900319,-12.9718,-38.5011,36KM,93KM,0KM,328KM
ADESAL,adesal,06/09/2005,5,Salvador,BA,2900319,-12.9718,-38.5011,36KM,93KM,0KM,328KM
ADESAL,adesal,27/08/2007,5,Salvador,BA,2900319,-12.9718,-38.5011,36KM,93KM,0KM,328KM
ADF,adf,04/07/2008,1,Vitória da Conquista,BA,343643,-14.8615,-40.8442,364KM,353KM,330KM,0KM
ADG,adg,06/06/2014,1,Santo Antônio de Jesus,BA,103204,-12.9614,-39.2584,105KM,84KM,82KM,271KM
ADIBELLA FASHION,adibella-fashion,09/10/2007,1,Itiúba,BA,36140,-10.6948,-39.8446,277KM,199KM,292KM,476KM
ADESAL,adesal,27/08/2007,5,Salvador,BA,2900319,-12.9718,-38.5011,36KM,93KM,0KM,328KM
ADESAL,adesal,27/08/2007,5,Salvador,BA,2900319,-12.9718,-38.5011,36KM,93KM,0KM,328KM
ADIL,adil,26/10/1979,1,Salvador,BA,2900319,-12.9718,-38.5011,36KM,93KM,0KM,328KM
ADESCOP,adescop,03/10/2007,5,Terra Nova,BA,13018,-12.3888,-38.6238,47KM,40KM,66KM,364KM
ADM DO BRASIL,adm-do-brasil,14/06/2002,5,Correntina,BA,32243,-13.3477,-44.6333,688KM,627KM,666KM,441KM
ADJETIVO MODAS,adjetivo-modas,03/09/2009,1,Riachão das Neves,BA,22330,-11.7508,-44.9143,722KM,649KM,708KM,558KM
ADMINISTRACAO CENTRAL,administracao-central,30/09/1966,5,Salvador,BA,2900319,-12.9718,-38.5011,36KM,93KM,0KM,328KM
ADMINISTRACAO DE COMPOSSUIDORES (ACVMP),administracao-de-compossuidores-acvmp,18/10/2010,5,Salvador,BA,2900319,-12.9718,-38.5011,36KM,93KM,0KM,328KM
ADMINISTRACAO E PARTICIPACAO VIDA,administracao-e-participacao-vida,14/03/2011,5,Itaberaba,BA,64795,-12.5242,-40.3059,216KM,148KM,202KM,266KM
ADOLAR TRANSPORTES,adolar-transportes,18/01/2006,1,Cruz das Almas,BA,63923,-12.6675,-39.1008,84KM,47KM,73KM,308KM
ADRIANA CALCADOS,adriana-calcados,02/09/1991,3,Vitória da Conquista,BA,343643,-14.8615,-40.8442,364KM,353KM,330KM,0KM
ADMSERV CONDOMINIOS,admserv-condominios,03/12/2007,5,Salvador,BA,2900319,-12.9718,-38.5011,36KM,93KM,0KM,328KM
ADRIANO BOLSAS E BIJU,adriano-bolsas-e-biju,27/05/2010,1,Juazeiro,BA,219544,-9.41622,-40.5033,435KM,358KM,451KM,607KM
ADRIANE DOS SANTOS NERI - VENDAS INDEPENDENTE,adriane-dos-santos-neri-vendas-independente,06/06/2014,1,Feira de Santana,BA,624107,-12.2664,-38.9663,84KM,0KM,93KM,352KM
ADRECS,adrecs,30/09/2005,5,Sapeaçu,BA,17421,-12.7208,-39.1824,93KM,56KM,79KM,298KM
ADRIANO VARIEDADES,adriano-variedades,30/05/2011,1,Camaçari,BA,309208,-12.6996,-38.3263,0KM,85KM,36KM,362KM
ADRIDJ,adridj,29/11/2006,1,Nova Viçosa,BA,44170,-17.8926,-39.3743,589KM,627KM,555KM,372KM
ADRIANA ARGOLO CONSULTORA IMOBILIARIA,adriana-argolo-consultora-imobiliaria,08/02/2010,1,Salvador,BA,2900319,-12.9718,-38.5011,36KM,93KM,0KM,328KM
ADS MATERIAIS DE CONSTRUCAO,ads-materiais-de-construcao,15/07/2004,1,Feira de Santana,BA,624107,-12.2664,-38.9663,84KM,0KM,93KM,352KM
ADSIU,adsiu,06/09/2011,5,Uauá,BA,23991,-9.83325,-39.4794,342KM,276KM,365KM,578KM
ADVAL TURISMO,adval-turismo,19/11/1991,1,Lauro de Freitas,BA,204669,-12.8978,-38.321,22KM,99KM,21KM,348KM
ADSSP,adssp,07/11/1988,5,São Sebastião do Passé,BA,44554,-12.5123,-38.4905,27KM,58KM,51KM,364KM
ADVBL,advbl,01/06/2011,5,Bom Jesus da Lapa,BA,70151,-13.2506,-43.4108,555KM,495KM,533KM,329KM
ADVANCED,advanced,06/05/2003,3,Barreiras,BA,158432,-12.1439,-44.9968,726KM,655KM,710KM,539KM
ADRIANE MODAS,adriane-modas,03/08/2000,1,Ilhéus,BA,157639,-14.793,-39.046,246KM,281KM,211KM,193KM
ADVANCE VIDEO,advance-video,25/06/1996,1,Salvador,BA,2900319,-12.9718,-38.5011,36KM,93KM,0KM,328KM
ADMDPDR,admdpdr,10/07/2009,5,Caldeirão Grande,BA,13452,-11.0208,-40.2956,284KM,200KM,291KM,431KM
ADVC,advc,29/01/1987,5,Valente,BA,29111,-11.4062,-39.457,189KM,110KM,203KM,412KM
AECO,aeco,24/02/1989,5,Vera Cruz,BA,44185,-12.9568,-38.6153,42KM,86KM,12KM,320KM
AEFAM,aefam,02/01/1981,5,Macaúbas,BA,50481,-13.0186,-42.6945,475KM,414KM,454KM,286KM
AEC,aec,29/09/2003,5,Quijingue,BA,27672,-10.7505,-39.2137,237KM,171KM,259KM,490KM
AELSON MOREIRA,aelson-moreira,12/06/2003,1,Livramento de Nossa Senhora,BA,46372,-13.6369,-41.8432,395KM,348KM,370KM,173KM
AECCP,aeccp,01/11/2011,5,Pojuca,BA,40401,-12.4303,-38.3374,30KM,71KM,63KM,382KM
AEMAP - ASSESSORIA E MAPEAMENTO,aemap-assessoria-e-mapeamento,23/05/2008,1,Vitória da Conquista,BA,343643,-14.8615,-40.8442,364KM,353KM,330KM,0KM
AEPASA,aepasa,11/10/2011,5,Saubara,BA,12163,-12.7387,-38.7625,48KM,57KM,38KM,325KM
AESB/BA,aesbba,15/10/1998,5,Senhor do Bonfim,BA,79813,-10.4594,-40.1865,321KM,241KM,334KM,495KM
AEPLCA,aeplca,19/12/2006,5,Salvador,BA,2900319,-12.9718,-38.5011,36KM,93KM,0KM,328KM
AFACHIT,afachit,09/07/2004,5,Porto Seguro,BA,152529,-16.4435,-39.0643,424KM,465KM,391KM,260KM
AEEC BAHIA,aeec-bahia,28/03/1991,5,Salvador,BA,2900319,-12.9718,-38.5011,36KM,93KM,0KM,328KM
AFBDG,afbdg,20/05/1999,5,Ibicaraí,BA,21083,-14.8579,-39.5914,276KM,296KM,241KM,135KM
AFALAP,afalap,25/07/1989,5,Candiba,BA,14415,-14.4097,-42.8667,528KM,486KM,499KM,223KM
AERO AGRICOLA RIO GRANDE,aero-agricola-rio-grande,02/07/2004,1,Riachão das Neves,BA,22330,-11.7508,-44.9143,722KM,649KM,708KM,558KM
AFAF,afaf,03/09/1997,5,Feira de Santana,BA,624107,-12.2664,-38.9663,84KM,0KM,93KM,352KM
AFLOCAM,aflocam,14/06/2004,5,Camaçari,BA,309208,-12.6996,-38.3263,0KM,85KM,36KM,362KM
AFDI ASSOCIACAO DE FARMACIAS E DROGARIAS INDEPENDENTES,afdi-associacao-de-farmacias-e-drogarias-independentes,06/10/2011,5,Vitória da Conquista,BA,343643,-14.8615,-40.8442,364KM,353KM,330KM,0KM
AFR REPRESENTACOES,afr-representacoes,17/03/2004,1,Itabuna,BA,214123,-14.7876,-39.2781,254KM,282KM,219KM,169KM
AFLORA,aflora,14/05/2009,1,Barreiras,BA,158432,-12.1439,-44.9968,726KM,655KM,710KM,539KM
AFQC,afqc,01/02/2011,5,Ipirá,BA,59281,-12.1561,-39.7359,164KM,85KM,162KM,324KM
AFIL GAS,afil-gas,03/07/1986,1,Camacan,BA,32023,-15.4142,-39.4919,327KM,355KM,292KM,158KM
AFS PINTURAS,afs-pinturas,11/11/2005,1,Salvador,BA,2900319,-12.9718,-38.5011,36KM,93KM,0KM,328KM
AFUS,afus,19/06/2007,5,Tucano,BA,50903,-10.9584,-38.7894,200KM,147KM,226KM,487KM
AG CARPINTARIA,ag-carpintaria,26/05/2014,1,Itaju do Colônia,BA,6515,-15.1366,-39.7283,311KM,330KM,275KM,124KM
AFUPAN,afupan,25/11/2008,5,Correntina,BA,32243,-13.3477,-44.6333,688KM,627KM,666KM,441KM
AG ITORORO,ag-itororo,05/12/1973,5,Itororó,BA,20394,-15.11,-40.0684,328KM,338KM,292KM,88KM
AFRUTOP,afrutop,08/04/1994,1,Dom Basílio,BA,12281,-13.7565,-41.7677,391KM,347KM,365KM,158KM
AG GROW SERVICES,ag-grow-services,18/05/2007,1,São Desidério,BA,34764,-12.3572,-44.9769,722KM,653KM,705KM,524KM
AG. COOPERATIVA SANTO ANTONIO DE JESUS,ag-cooperativa-santo-antonio-de-jesus,22/04/2002,5,Santo Antônio de Jesus,BA,103204,-12.9614,-39.2584,105KM,84KM,82KM,271KM
AGAPE CONSTRUTORA E INCORPORADORA,agape-construtora-e-incorporadora,20/02/1989,1,Jequié,BA,156277,-13.8509,-40.0877,230KM,214KM,198KM,139KM
AGE,age,22/03/1989,1,Medeiros Neto,BA,22741,-17.3707,-40.2238,559KM,584KM,524KM,287KM
AGECC,agecc,19/11/2010,5,Salvador,BA,2900319,-12.9718,-38.5011,36KM,93KM,0KM,328KM
AGENCIA CAMURUJIPE,agencia-camurujipe,21/12/1995,1,Brejões,BA,14155,-13.1039,-39.7988,166KM,130KM,141KM,225KM
AGENCIA BAIANA DE IMOVEIS,agencia-baiana-de-imoveis,10/03/2008,1,Camaçari,BA,309208,-12.6996,-38.3263,0KM,85KM,36KM,362KM
AGECSCAN,agecscan,05/12/2001,5,Canápolis,BA,9694,-13.0725,-44.201,639KM,576KM,618KM,412KM
AGENCIA,agencia,26/01/2005,1,Aracatu,BA,12960,-14.428,-41.4648,391KM,363KM,360KM,82KM
AGENCIA BONFINENSE,agencia-bonfinense,21/03/2007,1,Senhor do Bonfim,BA,79813,-10.4594,-40.1865,321KM,241KM,334KM,495KM
AGB SEGURANCA PATRIMONIAL,agb-seguranca-patrimonial,28/04/2011,1,Lauro de Freitas,BA,204669,-12.8978,-38.321,22KM,99KM,21KM,348KM
AGENCIA DE VIAGENS FRANCA,agencia-de-viagens-franca,13/08/1999,1,Pilão Arcado,BA,35295,-10.0051,-42.4936,542KM,458KM,544KM,568KM
AGENCIA CENTRAL DE ARTISTAS,agencia-central-de-artistas,13/01/1989,5,Itabuna,BA,214123,-14.7876,-39.2781,254KM,282KM,219KM,169KM
AGENCIA ED. SALVADOR PRIME,agencia-ed-salvador-prime,09/03/2012,5,Salvador,BA,2900319,-12.9718,-38.5011,36KM,93KM,0KM,328KM
AGENCIA IBICARAI BA,agencia-ibicarai-ba,10/06/1981,5,Ibicaraí,BA,21083,-14.8579,-39.5914,276KM,296KM,241KM,135KM
AGENCIA DO CREDITO,agencia-do-credito,12/11/2009,5,Juazeiro,BA,219544,-9.41622,-40.5033,435KM,358KM,451KM,607KM
AGENCIA ITABUNA EST UNIF BA,agencia-itabuna-est-unif-ba,03/02/1971,5,Itabuna,BA,214123,-14.7876,-39.2781,254KM,282KM,219KM,169KM
AGENCIA DE VIAGENS E TURISMO FILMAGENS E EVENTOS,agencia-de-viagens-e-turismo-filmagens-e-eventos,17/11/2010,1,Jaguaquara,BA,54913,-13.5248,-39.964,200KM,177KM,170KM,176KM
AGENCIA CIDADELA BA,agencia-cidadela-ba,02/09/1981,5,Salvador,BA,2900319,-12.9718,-38.5011,36KM,93KM,0KM,328KM
AGENCIA JARDIM VITORIA BA,agencia-jardim-vitoria-ba,14/02/2012,5,Itabuna,BA,214123,-14.7876,-39.2781,254KM,282KM,219KM,169KM
AGENCIA MEIRELES,agencia-meireles,22/08/2011,1,Alagoinhas,BA,153023,-12.1335,-38.4208,64KM,61KM,94KM,400KM
AGENCIA IRECE BA,agencia-irece-ba,27/09/1978,5,Irecê,BA,74050,-11.3033,-41.8535,413KM,331KM,408KM,410KM
AGETRAL DA BAHIA,agetral-da-bahia,17/11/1998,1,Salvador,BA,2900319,-12.9718,-38.5011,36KM,93KM,0KM,328KM
AGENMED SOLUCOES INTEGRADAS,agenmed-solucoes-integradas,23/01/2001,1,Casa Nova,BA,73092,-9.16408,-40.974,487KM,408KM,501KM,634KM
AGESB,agesb,11/05/1999,5,Buritirama,BA,21374,-10.7171,-43.6302,616KM,535KM,610KM,550KM
AGMAR,agmar,13/01/2010,5,Amélia Rodrigues,BA,24997,-12.3914,-38.7563,58KM,27KM,70KM,355KM
AGILIS,agilis,30/08/2010,1,Monte Santo,BA,49145,-10.4374,-39.3321,274KM,207KM,296KM,518KM
AGNALDO BOLSAS,agnaldo-bolsas,08/10/2008,1,Brumado,BA,67468,-14.2021,-41.6696,399KM,364KM,370KM,115KM
AGMUB,agmub,27/09/2011,5,Uauá,BA,23991,-9.83325,-39.4794,342KM,276KM,365KM,578KM
AGENCIA UBATA BA,agencia-ubata-ba,14/08/2012,5,Ubatã,BA,27481,-14.2063,-39.5207,212KM,224KM,176KM,160KM
AGF-LARGO DA LAPINHA,agf-largo-da-lapinha,09/02/1998,1,Salvador,BA,2900319,-12.9718,-38.5011,36KM,93KM,0KM,328KM
AGNES CONSULTORIA,agnes-consultoria,14/09/2011,1,Salvador,BA,2900319,-12.9718,-38.5011,36KM,93KM,0KM,328KM
AGNALDO REFRIGERACAO,agnaldo-refrigeracao,20/07/2011,1,Serra Dourada,BA,17261,-12.759,-43.9504,610KM,544KM,591KM,408KM
AGOA SERVICOS MEDICOS LTDA ME,agoa-servicos-medicos-ltda-me,10/09/2010,1,Salvador,BA,2900319,-12.9718,-38.5011,36KM,93KM,0KM,328KM
AGOPECUARIA JELITTO,agopecuaria-jelitto,30/10/2001,3,Prado,BA,28214,-17.3364,-39.2227,525KM,564KM,492KM,326KM
AGRA CONSTRUTORA,agra-construtora,06/09/1996,3,Camaçari,BA,309208,-12.6996,-38.3263,0KM,85KM,36KM,362KM
AGRIMAQUINAS,agrimaquinas,24/02/2005,1,Luís Eduardo Magalhães,BA,92671,-12.0956,-45.7866,812KM,741KM,795KM,614KM
AGRISEMEN INSEMINACAO ARTIFICIAL,agrisemen-inseminacao-artificial,05/10/1994,5,Ibicaraí,BA,21083,-14.8579,-39.5914,276KM,296KM,241KM,135KM
AGRO E MAQUINAS COMERCIO,agro-e-maquinas-comercio,29/07/1996,1,Alagoinhas,BA,153023,-12.1335,-38.4208,64KM,61KM,94KM,400KM
AGRIVET AGROVETERINARIO,agrivet-agroveterinario,18/01/1989,1,Itarantim,BA,19937,-15.6528,-40.065,379KM,395KM,343KM,121KM
AGRIPEC - CONSULTORIA & PROJETOS RURAIS,agripec-consultoria-projetos-rurais,26/10/2004,1,Vitória da Conquista,BA,343643,-14.8615,-40.8442,364KM,353KM,330KM,0KM
AGRO COMERCIAL BRISA,agro-comercial-brisa,03/02/2005,1,Conceição da Feira,BA,22933,-12.5078,-38.9978,76KM,27KM,75KM,328KM
AGRESTE PRODUTOS DE LIMPEZA,agreste-produtos-de-limpeza,17/02/2006,1,Ribeira do Pombal,BA,54097,-10.8373,-38.5382,208KM,166KM,237KM,512KM
AGRO PESCARA,agro-pescara,16/01/2002,3,Jaguaquara,BA,54913,-13.5248,-39.964,200KM,177KM,170KM,176KM
AGRO & ECOLOGICA EMPREENDIMENTOS SUSTENTAVEIS,agro-ecologica-empreendimentos-sustentaveis,01/12/2005,1,Uauá,BA,23991,-9.83325,-39.4794,342KM,276KM,365KM,578KM
AGRO ALMEIDA RACOES,agro-almeida-racoes,06/10/2011,1,Salvador,BA,2900319,-12.9718,-38.5011,36KM,93KM,0KM,328KM
AGRO RURAL,agro-rural,02/12/2010,1,Bom Jesus da Serra,BA,9768,-14.3663,-40.5126,301KM,288KM,267KM,66KM
AGRO VIA,agro-via,31/10/2011,5,Luís Eduardo Magalhães,BA,92671,-12.0956,-45.7866,812KM,741KM,795KM,614KM
AGROAGDO,agroagdo,14/10/2008,1,Guanambi,BA,85353,-14.2231,-42.7799,512KM,468KM,484KM,220KM
AGRO SUPERMERCADO,agro-supermercado,11/02/1999,1,Porto Seguro,BA,152529,-16.4435,-39.0643,424KM,465KM,391KM,260KM
AGROCOM,agrocom,26/03/1985,1,Eunápolis,BA,115360,-16.3715,-39.5821,430KM,461KM,396KM,216KM
AGROCAMPO,agrocampo,09/03/2007,3,Luís Eduardo Magalhães,BA,92671,-12.0956,-45.7866,812KM,741KM,795KM,614KM
AGROFERRO,agroferro,10/01/2007,5,Irecê,BA,74050,-11.3033,-41.8535,413KM,331KM,408KM,410KM
AGROFERRO,agroferro,27/05/2009,5,Livramento de Nossa Senhora,BA,46372,-13.6369,-41.8432,395KM,348KM,370KM,173KM
AGROFILHO COM DE PRODUTOS AGROPECUARIOS E VETERINARIOS,agrofilho-com-de-produtos-agropecuarios-e-veterinarios,13/07/2006,1,Sebastião Laranjeiras,BA,11586,-14.571,-42.9434,542KM,502KM,513KM,228KM
AGROAMBIENTE,agroambiente,10/11/2009,1,Central,BA,17293,-11.1376,-42.1116,446KM,364KM,441KM,436KM
AGROCAMPONES VI,agrocampones-vi,13/08/1996,1,Rio Real,BA,41209,-11.4814,-37.9332,142KM,142KM,177KM,489KM
AGROGENETICA E REPRESENTACOES JM LTDA,agrogenetica-e-representacoes-jm-ltda,01/02/2005,5,Itapetinga,BA,77408,-15.2475,-40.2482,352KM,360KM,316KM,77KM
AGROINDUSTRIA BOM SOSSEGO,agroindustria-bom-sossego,19/11/1997,1,Porto Seguro,BA,152529,-16.4435,-39.0643,424KM,465KM,391KM,260KM
AGROFIBRA,agrofibra,28/03/1988,1,Guanambi,BA,85353,-14.2231,-42.7799,512KM,468KM,484KM,220KM
AGROINDUSTRIAL,agroindustrial,25/02/2005,1,Luís Eduardo Magalhães,BA,92671,-12.0956,-45.7866,812KM,741KM,795KM,614KM
AGROM,agrom,04/11/1987,1,Ibicaraí,BA,21083,-14.8579,-39.5914,276KM,296KM,241KM,135KM
AGROMELO CONSTRUCAO & CONSTRUTORA,agromelo-construcao-construtora,23/08/2002,1,Nova Ibiá,BA,6518,-13.812,-39.6182,187KM,186KM,153KM,176KM
AGROMEL,agromel,09/10/2002,3,Cabaceiras do Paraguaçu,BA,19010,-12.5317,-39.1902,96KM,38KM,89KM,314KM
AGROMOURA,agromoura,03/12/2003,1,Cocos,BA,18835,-14.1814,-44.5352,693KM,642KM,668KM,404KM
AGROINDUSTRIAL ITAGUACU,agroindustrial-itaguacu,06/11/2001,1,Itaguaçu da Bahia,BA,14650,-11.0147,-42.3997,480KM,398KM,475KM,459KM
AGROMAK,agromak,18/05/2011,1,Luís Eduardo Magalhães,BA,92671,-12.0956,-45.7866,812KM,741KM,795KM,614KM
AGROMOTOR COMERCIO E SERVICOS,agromotor-comercio-e-servicos,20/09/2004,1,Ubaitaba,BA,18647,-14.303,-39.3222,208KM,230KM,173KM,175KM
AGRONORTE,agronorte,20/10/2005,1,Salvador,BA,2900319,-12.9718,-38.5011,36KM,93KM,0KM,328KM
AGROPEC CONSULTORIA RURAL,agropec-consultoria-rural,13/06/2011,1,Ipirá,BA,59281,-12.1561,-39.7359,164KM,85KM,162KM,324KM
AGROPECUARIA ALTO DO JEQUITIBA.,agropecuaria-alto-do-jequitiba,14/02/2008,1,Carinhanha,BA,29118,-14.2985,-43.7724,617KM,569KM,590KM,321KM
AGROPECUARIA 2A,agropecuaria-2a,05/04/2001,1,Bom Jesus da Lapa,BA,70151,-13.2506,-43.4108,555KM,495KM,533KM,329KM
AGROPEC - PRODUTOS AGRICOLAS E VETERINARIOS,agropec-produtos-agricolas-e-veterinarios,21/01/2003,3,Candiba,BA,14415,-14.4097,-42.8667,528KM,486KM,499KM,223KM
AGROPECUARIA BELA VISTA,agropecuaria-bela-vista,16/06/2014,1,Várzea da Roça,BA,14135,-11.6005,-40.1328,231KM,147KM,233KM,371KM
AGRONOVA AGRICOLA CASA NOVA LTDA,agronova-agricola-casa-nova-ltda,09/09/1994,1,Casa Nova,BA,73092,-9.16408,-40.974,487KM,408KM,501KM,634KM
AGROPECUARIA JF,agropecuaria-jf,21/05/2014,1,Igaporã,BA,15661,-13.774,-42.7155,491KM,441KM,465KM,235KM
AGROPECUARIA BOA SORTE,agropecuaria-boa-sorte,16/02/2012,1,Angical,BA,13902,-12.0063,-44.7003,696KM,624KM,680KM,522KM
AGROPECUARIA KS,agropecuaria-ks,27/04/2000,3,Luís Eduardo Magalhães,BA,92671,-12.0956,-45.7866,812KM,741KM,795KM,614KM
AGROPECUARIA ELOY DE ALMEIDA,agropecuaria-eloy-de-almeida,27/10/2010,5,Sapeaçu,BA,17421,-12.7208,-39.1824,93KM,56KM,79KM,298KM
AGROPECUARIA NERY,agropecuaria-nery,09/11/1998,5,Itabuna,BA,214123,-14.7876,-39.2781,254KM,282KM,219KM,169KM
AGROPECUARIA PAINEIRAS,agropecuaria-paineiras,10/09/1990,5,Cocos,BA,18835,-14.1814,-44.5352,693KM,642KM,668KM,404KM
AGROPECUARIA CASA DA TERRA,agropecuaria-casa-da-terra,13/02/2009,1,Barreiras,BA,158432,-12.1439,-44.9968,726KM,655KM,710KM,539KM
AGROPECUARIA PLANALTO,agropecuaria-planalto,26/04/2000,1,Planalto,BA,26581,-14.6654,-40.4718,319KM,313KM,285KM,46KM
AGROPECUARIA SAO FRANCISCO,agropecuaria-sao-francisco,05/10/2006,1,Medeiros Neto,BA,22741,-17.3707,-40.2238,559KM,584KM,524KM,287KM
AGROPECUARIA SANTO INACIO,agropecuaria-santo-inacio,01/06/2004,1,Juazeiro,BA,219544,-9.41622,-40.5033,435KM,358KM,451KM,607KM
AGROPECUARIA PALMEIRAS,agropecuaria-palmeiras,30/06/1997,3,Vitória da Conquista,BA,343643,-14.8615,-40.8442,364KM,353KM,330KM,0KM
AGROPECUARIA SILVA,agropecuaria-silva,29/07/2003,1,Caetité,BA,51184,-14.0684,-42.4861,476KM,432KM,449KM,197KM
AGROPECUARIA SAO JORGE,agropecuaria-sao-jorge,26/04/2003,1,Ribeira do Pombal,BA,54097,-10.8373,-38.5382,208KM,166KM,237KM,512KM
AGROPECUARIA PONTE GRANDE,agropecuaria-ponte-grande,18/07/2001,1,Bom Jesus da Lapa,BA,70151,-13.2506,-43.4108,555KM,495KM,533KM,329KM
AGROPECUARIA TRES IRMAOS,agropecuaria-tres-irmaos,25/01/2011,5,Pojuca,BA,40401,-12.4303,-38.3374,30KM,71KM,63KM,382KM
AGROSELCH,agroselch,11/03/2008,1,Luís Eduardo Magalhães,BA,92671,-12.0956,-45.7866,812KM,741KM,795KM,614KM
AGROPECUARIA SAO JOSE OPERARIO,agropecuaria-sao-jose-operario,14/06/2010,3,Angical,BA,13902,-12.0063,-44.7003,696KM,624KM,680KM,522KM
AGROVIDA,agrovida,18/03/2011,1,Elísio Medrado,BA,8129,-12.9417,-39.5191,132KM,96KM,110KM,257KM
AGROSUL,agrosul,14/02/2007,5,São Desidério,BA,34764,-12.3572,-44.9769,722KM,653KM,705KM,524KM
AGRORACOES,agroracoes,11/09/2003,1,Antônio Gonçalves,BA,11955,-10.5767,-40.2785,317KM,236KM,329KM,480KM
AGRORURAL,agrorural,04/11/1995,1,Wanderley,BA,12125,-12.1144,-43.8958,608KM,536KM,592KM,448KM
AGRUPAR LTDA,agrupar-ltda,19/06/2000,1,Cocos,BA,18835,-14.1814,-44.5352,693KM,642KM,668KM,404KM
AGROSANTA,agrosanta,13/05/1999,1,Santana,BA,26792,-12.9792,-44.0506,622KM,558KM,601KM,403KM
AGUA BELLA,agua-bella,23/05/2014,3,Feira de Santana,BA,624107,-12.2664,-38.9663,84KM,0KM,93KM,352KM
AGUA MINA,agua-mina,31/08/2005,1,Feira de Santana,BA,624107,-12.2664,-38.9663,84KM,0KM,93KM,352KM
AGRUPARH CONSULTORIA E TREINAMENTO,agruparh-consultoria-e-treinamento,13/02/1998,1,Salvador,BA,2900319,-12.9718,-38.5011,36KM,93KM,0KM,328KM
AGUA DE CHEIRO,agua-de-cheiro,01/09/2011,1,Feira de Santana,BA,624107,-12.2664,-38.9663,84KM,0KM,93KM,352KM
AGUA DE CHEIRO,agua-de-cheiro,12/05/2011,1,Feira de Santana,BA,624107,-12.2664,-38.9663,84KM,0KM,93KM,352KM
AGUA MINERAL CHAPADA DIAMANTINA,agua-mineral-chapada-diamantina,29/10/2007,1,Seabra,BA,44370,-12.4169,-41.7722,375KM,305KM,360KM,290KM
AGUA DE CHEIRO,agua-de-cheiro,02/03/2012,1,Morro do Chapéu,BA,35466,-11.5488,-41.1565,333KM,251KM,328KM,370KM
AGUA FORTE,agua-forte,14/01/2004,3,Juazeiro,BA,219544,-9.41622,-40.5033,435KM,358KM,451KM,607KM
AGUA DE CHEIRO,agua-de-cheiro,19/05/2010,5,Salvador,BA,2900319,-12.9718,-38.5011,36KM,93KM,0KM,328KM
AGUA E SAPONE,agua-e-sapone,18/05/2011,1,Guanambi,BA,85353,-14.2231,-42.7799,512KM,468KM,484KM,220KM
AGUA SANITARIA LISBOA,agua-sanitaria-lisboa,08/06/1987,1,Jequié,BA,156277,-13.8509,-40.0877,230KM,214KM,198KM,139KM
AGUA VIDA,agua-vida,16/07/2008,1,Itabuna,BA,214123,-14.7876,-39.2781,254KM,282KM,219KM,169KM
AGUAS CLARAS PLACE,aguas-claras-place,09/08/2001,1,São Gonçalo dos Campos,BA,38315,-12.4331,-38.9663,75KM,19KM,78KM,337KM
AGUIA AGUA MINERAL,aguia-agua-mineral,20/04/2012,1,Salvador,BA,2900319,-12.9718,-38.5011,36KM,93KM,0KM,328KM
AGUAS DE MARCO FILMES,aguas-de-marco-filmes,20/04/2011,1,Salvador,BA,2900319,-12.9718,-38.5011,36KM,93KM,0KM,328KM
AGUIA BRANCA,aguia-branca,25/02/1986,5,Feira de Santana,BA,624107,-12.2664,-38.9663,84KM,0KM,93KM,352KM
AGUAS DA VIDA,aguas-da-vida,09/06/2014,1,Salvador,BA,2900319,-12.9718,-38.5011,36KM,93KM,0KM,328KM
AGUIA - REPRESENTACAO,aguia-representacao,26/01/2007,1,Jequié,BA,156277,-13.8509,-40.0877,230KM,214KM,198KM,139KM
AGUIA BRANCA ADMINISTRADORA E CORRETORA DE SEGUROS LTDA,aguia-branca-administradora-e-corretora-de-seguros-ltda,16/03/2004,1,Vitória da Conquista,BA,343643,-14.8615,-40.8442,364KM,353KM,330KM,0KM
AGUIA DO SERTAO E LAPONENSE,aguia-do-sertao-e-laponense,10/09/2001,1,Irecê,BA,74050,-11.3033,-41.8535,413KM,331KM,408KM,410KM
AGUARDENTE BURI,aguardente-buri,28/07/1988,1,Dom Macedo Costa,BA,4072,-12.9016,-39.1923,97KM,75KM,75KM,281KM
AGUIA PNEUS,aguia-pneus,01/02/1999,1,Paulo Afonso,BA,119213,-9.3983,-38.2216,367KM,329KM,399KM,670KM
AGUIA DOURADA ALIMENTOS,aguia-dourada-alimentos,16/04/2001,1,Salvador,BA,2900319,-12.9718,-38.5011,36KM,93KM,0KM,328KM
AGUIA REAL SEGURANCA,aguia-real-seguranca,23/10/2009,3,Lauro de Freitas,BA,204669,-12.8978,-38.321,22KM,99KM,21KM,348KM
AGUIA BRANCA,aguia-branca,25/02/1992,5,Feira de Santana,BA,624107,-12.2664,-38.9663,84KM,0KM,93KM,352KM
AGYL ENGENHARIA,agyl-engenharia,09/04/2009,1,Salvador,BA,2900319,-12.9718,-38.5011,36KM,93KM,0KM,328KM
AGZADA,agzada,03/08/1982,5,Salvador,BA,2900319,-12.9718,-38.5011,36KM,93KM,0KM,328KM
AIQUARA TESOURARIA,aiquara-tesouraria,14/07/1975,5,Aiquara,BA,4387,-14.1269,-39.8937,233KM,230KM,198KM,131KM
AIRCOLD SERVICE,aircold-service,19/11/2010,1,Salvador,BA,2900319,-12.9718,-38.5011,36KM,93KM,0KM,328KM
AILTON AUTOMOVEIS,ailton-automoveis,11/03/2010,1,Euclides da Cunha,BA,61112,-10.5078,-39.0153,255KM,196KM,280KM,523KM
AIRMED,airmed,30/08/2001,1,Salvador,BA,2900319,-12.9718,-38.5011,36KM,93KM,0KM,328KM
AIRT,airt,14/08/2003,5,Tucano,BA,50903,-10.9584,-38.7894,200KM,147KM,226KM,487KM
AIBA,aiba,26/03/1991,5,Barreiras,BA,158432,-12.1439,-44.9968,726KM,655KM,710KM,539KM
AIRLADCA,airladca,01/03/2005,5,Caetité,BA,51184,-14.0684,-42.4861,476KM,432KM,449KM,197KM
AIVA GUINCHOS,aiva-guinchos,29/09/2008,1,Feira de Santana,BA,624107,-12.2664,-38.9663,84KM,0KM,93KM,352KM
AJ PINTURAS,aj-pinturas,24/09/2010,1,Vitória da Conquista,BA,343643,-14.8615,-40.8442,364KM,353KM,330KM,0KM
AJAX TRANSPORTES,ajax-transportes,04/02/2010,1,Salvador,BA,2900319,-12.9718,-38.5011,36KM,93KM,0KM,328KM
AJACS,ajacs,07/06/2001,5,Jiquiriçá,BA,14576,-13.2621,-39.5737,149KM,129KM,121KM,224KM
AJA,aja,03/01/2001,5,Riacho de Santana,BA,35757,-13.6059,-42.9397,510KM,457KM,486KM,265KM
AJA,aja,24/09/1987,5,Caetité,BA,51184,-14.0684,-42.4861,476KM,432KM,449KM,197KM
AJECE,ajece,06/06/1994,5,Jequié,BA,156277,-13.8509,-40.0877,230KM,214KM,198KM,139KM
AJAX EVENTOS ESPORTIVOS,ajax-eventos-esportivos,06/07/2010,1,Salvador,BA,2900319,-12.9718,-38.5011,36KM,93KM,0KM,328KM
AJORP,ajorp,18/11/2005,5,Xique-Xique,BA,46562,-10.823,-42.7245,521KM,439KM,516KM,492KM
AJPI,ajpi,03/04/2009,5,Mata de São João,BA,47643,-12.5307,-38.3009,19KM,78KM,54KM,377KM
AJR COMERCIO DE VARIEDADES,ajr-comercio-de-variedades,26/05/2014,1,Vera Cruz,BA,44185,-12.9568,-38.6153,42KM,86KM,12KM,320KM
AJS AUDITORIA E CONSULTORIA CONTABIL,ajs-auditoria-e-consultoria-contabil,29/04/2010,3,Teixeira de Freitas,BA,164290,-17.5399,-39.74,560KM,592KM,525KM,321KM
AJLL CONSTRUCOES,ajll-construcoes,12/06/2001,1,Porto Seguro,BA,152529,-16.4435,-39.0643,424KM,465KM,391KM,260KM
AKI PECAS,aki-pecas,14/09/2009,1,Utinga,BA,19330,-12.0783,-41.0954,308KM,232KM,298KM,311KM
AKCF,akcf,18/11/2004,5,Conceição da Feira,BA,22933,-12.5078,-38.9978,76KM,27KM,75KM,328KM
AJW,ajw,09/02/2006,5,Salvador,BA,2900319,-12.9718,-38.5011,36KM,93KM,0KM,328KM
AKRAGAS,akragas,22/05/2001,5,Salvador,BA,2900319,-12.9718,-38.5011,36KM,93KM,0KM,328KM
AKTIVA PUBLICIDADE,aktiva-publicidade,27/01/2003,1,Vitória da Conquista,BA,343643,-14.8615,-40.8442,364KM,353KM,330KM,0KM
AL-HAMBRA,al-hambra,25/08/1971,5,Salvador,BA,2900319,-12.9718,-38.5011,36KM,93KM,0KM,328KM
AKI TEM MATERIAIS DE CONSTRUCAO,aki-tem-materiais-de-construcao,05/02/1999,1,Camaçari,BA,309208,-12.6996,-38.3263,0KM,85KM,36KM,362KM
ALA,ala,15/02/2006,5,Caetité,BA,51184,-14.0684,-42.4861,476KM,432KM,449KM,197KM
ALA,ala,10/10/2001,5,Monte Santo,BA,49145,-10.4374,-39.3321,274KM,207KM,296KM,518KM
ALAGOINHAS METAIS,alagoinhas-metais,19/01/2007,1,Alagoinhas,BA,153023,-12.1335,-38.4208,64KM,61KM,94KM,400KM
ALADIO DISTRIBUIDOR,aladio-distribuidor,24/11/2008,5,Santo Antônio de Jesus,BA,103204,-12.9614,-39.2584,105KM,84KM,82KM,271KM
AL COMUNICACAO VISUAL,al-comunicacao-visual,19/05/2014,1,Lauro de Freitas,BA,204669,-12.8978,-38.321,22KM,99KM,21KM,348KM
ALAKAR COSMETICOS,alakar-cosmeticos,23/10/2001,1,Salvador,BA,2900319,-12.9718,-38.5011,36KM,93KM,0KM,328KM
ALARTEC,alartec,06/08/2001,1,Porto Seguro,BA,152529,-16.4435,-39.0643,424KM,465KM,391KM,260KM
ALARTRONIC,alartronic,12/01/2005,1,Salvador,BA,2900319,-12.9718,-38.5011,36KM,93KM,0KM,328KM
ALAC,alac,14/04/1996,5,Conde,BA,26223,-11.8179,-37.6131,125KM,155KM,160KM,485KM
ALATA TRANSPORTES,alata-transportes,19/04/2001,1,Guanambi,BA,85353,-14.2231,-42.7799,512KM,468KM,484KM,220KM
ALAUDA EMPREENDIMENTOS IMOBILIARIOS,alauda-empreendimentos-imobiliarios,08/08/2006,1,Porto Seguro,BA,152529,-16.4435,-39.0643,424KM,465KM,391KM,260KM
ALAN SOUZA DOS SANTOS,alan-souza-dos-santos,24/11/2010,1,Vitória da Conquista,BA,343643,-14.8615,-40.8442,364KM,353KM,330KM,0KM
ALBA,alba,15/02/1979,5,Salvador,BA,2900319,-12.9718,-38.5011,36KM,93KM,0KM,328KM
ALBA FASHION,alba-fashion,23/01/2012,1,Vitória da Conquista,BA,343643,-14.8615,-40.8442,364KM,353KM,330KM,0KM
ALB,alb,18/12/2002,5,Guajeru,BA,6371,-14.5467,-41.9381,442KM,411KM,412KM,123KM
ALBASA,albasa,28/06/1979,5,Salvador,BA,2900319,-12.9718,-38.5011,36KM,93KM,0KM,328KM
ALBATROSS,albatross,10/12/1993,1,Ilhéus,BA,157639,-14.793,-39.046,246KM,281KM,211KM,193KM
ALBERTINA ESTETICA & CIA,albertina-estetica-cia,30/06/2010,1,Juazeiro,BA,219544,-9.41622,-40.5033,435KM,358KM,451KM,607KM
ALCANCE OPERADORA,alcance-operadora,28/04/1988,1,Salvador,BA,2900319,-12.9718,-38.5011,36KM,93KM,0KM,328KM
ALBANO CURSOS TECNICOS,albano-cursos-tecnicos,19/04/2012,1,Santana,BA,26792,-12.9792,-44.0506,622KM,558KM,601KM,403KM
ALCEU VEICULOS,alceu-veiculos,23/01/2007,1,Livramento de Nossa Senhora,BA,46372,-13.6369,-41.8432,395KM,348KM,370KM,173KM
ALCEL,alcel,07/02/2007,5,Salvador,BA,2900319,-12.9718,-38.5011,36KM,93KM,0KM,328KM
ALBATROZ SERVICOS TOPOGRAFICOS,albatroz-servicos-topograficos,07/11/1991,1,Salvador,BA,2900319,-12.9718,-38.5011,36KM,93KM,0KM,328KM
ALCINO ESTALAGEM & ATELIER,alcino-estalagem-atelier,15/08/2005,1,Lençóis,BA,11586,-12.5616,-41.3928,333KM,266KM,317KM,262KM
ALDA NOIVAS,alda-noivas,21/01/2005,1,Salvador,BA,2900319,-12.9718,-38.5011,36KM,93KM,0KM,328KM
ALCE COMERCIO LTDA,alce-comercio-ltda,22/10/2008,3,Simões Filho,BA,137117,-12.7866,-38.4029,13KM,84KM,23KM,349KM
ALEIXO SEPULVEDA E ASSOCIADOS,aleixo-sepulveda-e-associados,02/03/2011,1,Salvador,BA,2900319,-12.9718,-38.5011,36KM,93KM,0KM,328KM
ALCFU COMUNICACOES,alcfu-comunicacoes,03/09/2009,1,Salvador,BA,2900319,-12.9718,-38.5011,36KM,93KM,0KM,328KM
ALEFE MAGAZINE,alefe-magazine,22/04/1997,1,Jaguaquara,BA,54913,-13.5248,-39.964,200KM,177KM,170KM,176KM
ALDENICE GONCALVES,aldenice-goncalves,13/05/2014,1,Candeal,BA,8109,-11.8049,-39.1203,132KM,54KM,146KM,387KM
ALDEIA TUMBALALA,aldeia-tumbalala,19/01/2005,5,Curaçá,BA,35065,-8.98458,-39.8997,447KM,379KM,469KM,661KM
ALEMDALUZ,alemdaluz,04/03/2011,5,Luís Eduardo Magalhães,BA,92671,-12.0956,-45.7866,812KM,741KM,795KM,614KM
ALENCAR REPRESENTACOES,alencar-representacoes,13/01/2011,1,São Desidério,BA,34764,-12.3572,-44.9769,722KM,653KM,705KM,524KM
ALEMAO BATERIAS,alemao-baterias,13/05/1997,1,Salvador,BA,2900319,-12.9718,-38.5011,36KM,93KM,0KM,328KM
ALESSANDRA EMBALAGENS,alessandra-embalagens,02/02/2012,1,Santaluz,BA,37704,-11.2508,-39.375,197KM,121KM,214KM,431KM
ALESAT,alesat,05/03/2007,5,Juazeiro,BA,219544,-9.41622,-40.5033,435KM,358KM,451KM,607KM
ALFA CAKE,alfa-cake,09/09/2010,1,Lauro de Freitas,BA,204669,-12.8978,-38.321,22KM,99KM,21KM,348KM
ALEX DO PIRAO,alex-do-pirao,21/10/2010,1,Salvador,BA,2900319,-12.9718,-38.5011,36KM,93KM,0KM,328KM
ALEXANDRE PRODUCOES,alexandre-producoes,18/02/2011,1,Jandaíra,BA,10742,-11.5616,-37.7853,139KM,150KM,175KM,493KM
ALERTA,alerta,21/03/1980,3,Castro Alves,BA,26369,-12.7579,-39.4248,119KM,74KM,103KM,279KM
ALECRIM DOURADO,alecrim-dourado,27/03/2009,1,Lauro de Freitas,BA,204669,-12.8978,-38.321,22KM,99KM,21KM,348KM
ALESAT,alesat,06/08/2007,5,Luís Eduardo Magalhães,BA,92671,-12.0956,-45.7866,812KM,741KM,795KM,614KM
ALESSANDRO OLIVEIRA SOUZA,alessandro-oliveira-souza,11/04/1997,1,Santo Antônio de Jesus,BA,103204,-12.9614,-39.2584,105KM,84KM,82KM,271KM
ALFA CONTABILIDADE,alfa-contabilidade,09/01/2009,1,Laje,BA,24214,-13.1673,-39.4213,130KM,112KM,102KM,243KM
ALFA DESIGNER,alfa-designer,23/07/2011,1,Maracás,BA,19973,-13.4355,-40.4323,243KM,206KM,216KM,165KM
ALFREDO BAR,alfredo-bar,21/11/2008,1,Salvador,BA,2900319,-12.9718,-38.5011,36KM,93KM,0KM,328KM
ALFA FOTOS,alfa-fotos,21/05/2010,1,Barreiras,BA,158432,-12.1439,-44.9968,726KM,655KM,710KM,539KM
ALFAMA,alfama,01/03/1991,3,Salvador,BA,2900319,-12.9718,-38.5011,36KM,93KM,0KM,328KM
ALFA ELETROMOVEIS,alfa-eletromoveis,26/10/2009,1,Tabocas do Brejo Velho,BA,12515,-12.7026,-44.0075,616KM,550KM,597KM,416KM
ALFA ELETRICOS,alfa-eletricos,09/10/2001,1,Salvador,BA,2900319,-12.9718,-38.5011,36KM,93KM,0KM,328KM
ALGASZARRA,algaszarra,16/08/2004,3,Salvador,BA,2900319,-12.9718,-38.5011,36KM,93KM,0KM,328KM
ALFA COTTON INTERMEDIACOES DE NEGOCIOS,alfa-cotton-intermediacoes-de-negocios,29/12/2009,1,Luís Eduardo Magalhães,BA,92671,-12.0956,-45.7866,812KM,741KM,795KM,614KM
ALGICLIN,algiclin,02/04/2004,1,Guanambi,BA,85353,-14.2231,-42.7799,512KM,468KM,484KM,220KM
ALGEBRA ENGENHARIA,algebra-engenharia,23/04/2003,1,Catu,BA,55222,-12.3513,-38.3791,39KM,64KM,70KM,385KM
ALIANCA CORRESPONDENTE,alianca-correspondente,17/05/2000,1,Alagoinhas,BA,153023,-12.1335,-38.4208,64KM,61KM,94KM,400KM
ALGODAO DOCE,algodao-doce,10/10/2008,1,Camaçari,BA,309208,-12.6996,-38.3263,0KM,85KM,36KM,362KM
ALIANCA CONTABIL,alianca-contabil,26/04/1999,1,Luís Eduardo Magalhães,BA,92671,-12.0956,-45.7866,812KM,741KM,795KM,614KM
ALGOESTE AMBIENTAL,algoeste-ambiental,01/07/2009,3,Lapão,BA,27323,-11.3851,-41.8286,407KM,326KM,401KM,401KM
ALGOTEX DANTAS,algotex-dantas,14/03/2008,1,Brumado,BA,67468,-14.2021,-41.6696,399KM,364KM,370KM,115KM
ALIANCA FRANCESA,alianca-francesa,17/01/1974,5,Salvador,BA,2900319,-12.9718,-38.5011,36KM,93KM,0KM,328KM
ALIANCA EMBALAGENS,alianca-embalagens,11/08/2006,1,Salvador,BA,2900319,-12.9718,-38.5011,36KM,93KM,0KM,328KM
ALIANCA REPRESENTACOES,alianca-representacoes,25/08/2005,1,Feira de Santana,BA,624107,-12.2664,-38.9663,84KM,0KM,93KM,352KM
ALIMENTOS DO TRIGO,alimentos-do-trigo,19/08/2010,1,Barreiras,BA,158432,-12.1439,-44.9968,726KM,655KM,710KM,539KM
ALIANCE,aliance,15/02/2012,1,Salvador,BA,2900319,-12.9718,-38.5011,36KM,93KM,0KM,328KM
ALIMENTOS NATUR,alimentos-natur,04/10/1996,3,Caetité,BA,51184,-14.0684,-42.4861,476KM,432KM,449KM,197KM
ALIMENTOS D'IRARA,alimentos-dirara,28/08/2009,1,Irará,BA,29305,-12.0504,-38.7631,86KM,33KM,106KM,384KM
ALIMENTOS SHEKINAH,alimentos-shekinah,11/01/2007,1,Santo Antônio de Jesus,BA,103204,-12.9614,-39.2584,105KM,84KM,82KM,271KM
ALILA COMERCIO,alila-comercio,01/02/2007,1,Salvador,BA,2900319,-12.9718,-38.5011,36KM,93KM,0KM,328KM
ALINE SANTOS CONSULTORIA EM RECURSOS HUMANOS,aline-santos-consultoria-em-recursos-humanos,27/02/2011,1,Feira de Santana,BA,624107,-12.2664,-38.9663,84KM,0KM,93KM,352KM
ALINE MODAS,aline-modas,15/09/2009,1,Iguaí,BA,27006,-14.7528,-40.0894,298KM,302KM,262KM,82KM
ALIRIOS,alirios,01/03/2004,1,Salvador,BA,2900319,-12.9718,-38.5011,36KM,93KM,0KM,328KM
ALJ LUZ,alj-luz,17/10/2008,1,Eunápolis,BA,115360,-16.3715,-39.5821,430KM,461KM,396KM,216KM
ALINE CONFECCOES,aline-confeccoes,17/07/2000,1,Ilhéus,BA,157639,-14.793,-39.046,246KM,281KM,211KM,193KM
ALL CLEAN,all-clean,16/09/1986,1,Salvador,BA,2900319,-12.9718,-38.5011,36KM,93KM,0KM,328KM
ALL DESIGN,all-design,27/01/1999,3,Vitória da Conquista,BA,343643,-14.8615,-40.8442,364KM,353KM,330KM,0KM
ALLANA MATERIAIS DE CONSTRUCAO,allana-materiais-de-construcao,18/11/2010,1,Boninal,BA,14518,-12.7069,-41.8286,380KM,315KM,362KM,262KM
ALLIUM SERVICOS MEDICOS LTDA ME,allium-servicos-medicos-ltda-me,24/05/2010,1,Salvador,BA,2900319,-12.9718,-38.5011,36KM,93KM,0KM,328KM
ALINE NOIVAS,aline-noivas,17/09/2004,1,Vitória da Conquista,BA,343643,-14.8615,-40.8442,364KM,353KM,330KM,0KM
ALINHAMENTO E BALANCEAMENTO FRAGA,alinhamento-e-balanceamento-fraga,19/01/2012,1,Seabra,BA,44370,-12.4169,-41.7722,375KM,305KM,360KM,290KM
ALM & LUC PRODUTOS DE LIMPEZA,alm-luc-produtos-de-limpeza,19/09/2003,1,Salvador,BA,2900319,-12.9718,-38.5011,36KM,93KM,0KM,328KM
ALLURE STORY,allure-story,07/04/1992,1,Camaçari,BA,309208,-12.6996,-38.3263,0KM,85KM,36KM,362KM
ALMA PRAYANA,alma-prayana,14/08/2009,1,Cairu,BA,18666,-13.4904,-39.0465,118KM,136KM,83KM,246KM
ALLEGORY TEEN,allegory-teen,26/08/2002,1,Itabuna,BA,214123,-14.7876,-39.2781,254KM,282KM,219KM,169KM
ALLANBICK PRODUCOES,allanbick-producoes,28/11/2008,1,Barreiras,BA,158432,-12.1439,-44.9968,726KM,655KM,710KM,539KM
ALMEIDA CONTABILIDADE E SERVICOS,almeida-contabilidade-e-servicos,17/09/1974,1,Campo Alegre de Lourdes,BA,28839,-9.52221,-43.0126,619KM,535KM,621KM,638KM
ALMEIDA ELETRIFICACOES,almeida-eletrificacoes,19/10/2005,5,Eunápolis,BA,115360,-16.3715,-39.5821,430KM,461KM,396KM,216KM
ALMEIDA REPRESENTACOES,almeida-representacoes,23/01/2008,1,Feira de Santana,BA,624107,-12.2664,-38.9663,84KM,0KM,93KM,352KM
ALPHA EMPREENDIMENTOS & CONSULTORIA,alpha-empreendimentos-consultoria,20/10/2005,1,São José do Jacuípe,BA,10546,-11.4137,-39.8669,220KM,136KM,228KM,398KM
ALMIRELI REPRESENTACAO,almireli-representacao,28/03/2003,1,Salvador,BA,2900319,-12.9718,-38.5011,36KM,93KM,0KM,328KM
ALMEIDA MARTINS COMERCIAL,almeida-martins-comercial,12/10/2011,1,Wagner,BA,9342,-12.2819,-41.1715,312KM,240KM,299KM,289KM
ALMEIDA ENGENHARIA,almeida-engenharia,13/02/2006,1,Senhor do Bonfim,BA,79813,-10.4594,-40.1865,321KM,241KM,334KM,495KM
ALMEIDA REPRESENTACOES,almeida-representacoes,17/03/1997,1,Brotas de Macaúbas,BA,10705,-11.9915,-42.6326,474KM,400KM,461KM,373KM
ALO BRINDES,alo-brindes,13/05/1991,5,Salvador,BA,2900319,-12.9718,-38.5011,36KM,93KM,0KM,328KM
ALPHA PNEUS,alpha-pneus,03/06/1997,1,Salvador,BA,2900319,-12.9718,-38.5011,36KM,93KM,0KM,328KM
ALRS ADMNISTRACAO E CONSULTORIA,alrs-admnistracao-e-consultoria,26/05/2014,1,Salvador,BA,2900319,-12.9718,-38.5011,36KM,93KM,0KM,328KM
ALPHABLOCK,alphablock,17/06/2014,1,Lauro de Freitas,BA,204669,-12.8978,-38.321,22KM,99KM,21KM,348KM
ALSAN LTDA,alsan-ltda,29/05/1998,1,Salvador,BA,2900319,-12.9718,-38.5011,36KM,93KM,0KM,328KM
ALTERNATIVA COZINHA,alternativa-cozinha,31/10/2010,1,Salvador,BA,2900319,-12.9718,-38.5011,36KM,93KM,0KM,328KM
ALUMAQ,alumaq,05/11/2008,1,Jequié,BA,156277,-13.8509,-40.0877,230KM,214KM,198KM,139KM
ALTO DO CRUZEIRO COM. DE CAFE IMPORTACAO E EXPORTACAO,alto-do-cruzeiro-com-de-cafe-importacao-e-exportacao,23/08/2005,1,Ibicoara,BA,19990,-13.4059,-41.284,330KM,282KM,305KM,169KM
ALTO GIRO,alto-giro,11/10/2005,1,Paramirim,BA,21777,-13.4388,-42.2395,432KM,379KM,408KM,218KM
ALUMINIO SALVADOR,aluminio-salvador,29/06/2004,5,Salvador,BA,2900319,-12.9718,-38.5011,36KM,93KM,0KM,328KM
ALTERNATIVE TRAINING SERVICES,alternative-training-services,10/01/2003,1,Camaçari,BA,309208,-12.6996,-38.3263,0KM,85KM,36KM,362KM
ALTHA TECNOLOGIA,altha-tecnologia,15/07/1991,1,Salvador,BA,2900319,-12.9718,-38.5011,36KM,93KM,0KM,328KM
ALUMIMODAS CONFECCOES UNISSEX,alumimodas-confeccoes-unissex,20/05/1986,1,Itabuna,BA,214123,-14.7876,-39.2781,254KM,282KM,219KM,169KM
ALUMISEG BOX,alumiseg-box,27/06/2011,1,Salvador,BA,2900319,-12.9718,-38.5011,36KM,93KM,0KM,328KM
ALVA,alva,27/05/2009,5,Teixeira de Freitas,BA,164290,-17.5399,-39.74,560KM,592KM,525KM,321KM
ALVO SAUDE AMBIENTAL & CONTROLE DE PRAGAS,alvo-saude-ambiental-controle-de-pragas,26/01/2001,1,Água Fria,BA,17096,-11.8618,-38.7639,105KM,50KM,127KM,402KM
ALVARES COMERCIO E REPRESENTACAO,alvares-comercio-e-representacao,11/05/2009,1,Vitória da Conquista,BA,343643,-14.8615,-40.8442,364KM,353KM,330KM,0KM
ALVA TRANSPORTES,alva-transportes,23/07/2008,1,Maiquinique,BA,10294,-15.624,-40.2587,387KM,399KM,351KM,106KM
ALURY SOLUTIONS,alury-solutions,03/02/2006,1,Salvador,BA,2900319,-12.9718,-38.5011,36KM,93KM,0KM,328KM
ALYSSON TRANSPORTES,alysson-transportes,01/12/1997,1,Planalto,BA,26581,-14.6654,-40.4718,319KM,313KM,285KM,46KM
ALVES COMERCIO DE FEIJAO,alves-comercio-de-feijao,19/04/2001,1,Jequié,BA,156277,-13.8509,-40.0877,230KM,214KM,198KM,139KM
ALVO COMO A NEVE,alvo-como-a-neve,22/10/2010,1,Salvador,BA,2900319,-12.9718,-38.5011,36KM,93KM,0KM,328KM
ALY MULTISERVICE,aly-multiservice,05/08/2003,1,Araci,BA,54903,-11.3253,-38.9584,167KM,105KM,190KM,442KM
ALVOR SERVICOS MEDICOS LTDA ME,alvor-servicos-medicos-ltda-me,10/05/2012,1,Salvador,BA,2900319,-12.9718,-38.5011,36KM,93KM,0KM,328KM
AM GAS,am-gas,23/04/2001,1,Itacaré,BA,29051,-14.2784,-38.9959,190KM,224KM,155KM,209KM
AM -SORRISO0,am-sorriso0,03/04/2006,1,Salvador,BA,2900319,-12.9718,-38.5011,36KM,93KM,0KM,328KM
AM INTERFACCE,am-interfacce,27/11/2000,1,Salvador,BA,2900319,-12.9718,-38.5011,36KM,93KM,0KM,328KM
AMACAPS,amacaps,12/02/2009,5,Maraú,BA,20664,-14.1035,-39.0137,173KM,204KM,138KM,214KM
AMAM TUR,amam-tur,18/12/1996,1,Salvador,BA,2900319,-12.9718,-38.5011,36KM,93KM,0KM,328KM
AMAFAPI,amafapi,06/04/2005,5,Santo Amaro,BA,60190,-12.5472,-38.7137,45KM,42KM,53KM,344KM
AMADEF,amadef,24/10/1997,5,Conceição do Almeida,BA,17087,-12.7836,-39.1715,92KM,62KM,76KM,293KM
AM TEMPERO COMPLETO,am-tempero-completo,21/05/2014,1,Ibirapitanga,BA,23433,-14.1649,-39.3787,199KM,216KM,163KM,176KM
AMA STORE,ama-store,17/11/2010,1,Porto Seguro,BA,152529,-16.4435,-39.0643,424KM,465KM,391KM,260KM
AMANDA DECORACAO,amanda-decoracao,09/08/2010,1,Santo Antônio de Jesus,BA,103204,-12.9614,-39.2584,105KM,84KM,82KM,271KM
AMAI INFORMATICA,amai-informatica,16/05/1996,1,Teixeira de Freitas,BA,164290,-17.5399,-39.74,560KM,592KM,525KM,321KM
AMANDA SANTANA DE JESUS BRITO,amanda-santana-de-jesus-brito,30/01/2012,1,Salvador,BA,2900319,-12.9718,-38.5011,36KM,93KM,0KM,328KM
AMAI,amai,21/09/2009,5,Itanhém,BA,19231,-17.1642,-40.3321,542KM,564KM,507KM,262KM
AMANDA PRODUTOS NATURAIS,amanda-produtos-naturais,20/09/1990,1,Jaguarari,BA,33915,-10.2569,-40.1999,339KM,261KM,354KM,517KM
AMAPESCA,amapesca,02/10/2003,5,Santo Amaro,BA,60190,-12.5472,-38.7137,45KM,42KM,53KM,344KM
AMARZONIA ASSESSORIA E GESTAO EMPRESARIAL,amarzonia-assessoria-e-gestao-empresarial,24/03/2009,5,Salvador,BA,2900319,-12.9718,-38.5011,36KM,93KM,0KM,328KM
AMAS-BOQUIRA,amas-boquira,29/06/2009,5,Boquira,BA,21486,-12.8205,-42.7324,478KM,414KM,459KM,304KM
AMAR,amar,06/04/1989,5,Rafael Jambeiro,BA,22643,-12.4053,-39.5007,132KM,60KM,125KM,309KM
AMAPOLA ARTE & PRESENTES,amapola-arte-presentes,30/05/2011,1,Lauro de Freitas,BA,204669,-12.8978,-38.321,22KM,99KM,21KM,348KM
AMASOLO,amasolo,21/07/2011,1,Luís Eduardo Magalhães,BA,92671,-12.0956,-45.7866,812KM,741KM,795KM,614KM
AMARALCRED,amaralcred,14/09/2006,5,Ilhéus,BA,157639,-14.793,-39.046,246KM,281KM,211KM,193KM
AMAV,amav,20/03/1998,5,Valença,BA,97873,-13.3669,-39.073,110KM,123KM,76KM,253KM
AMARAL COSMETICOS,amaral-cosmeticos,17/07/2008,1,Porto Seguro,BA,152529,-16.4435,-39.0643,424KM,465KM,391KM,260KM
AMB,amb,04/06/2009,5,Araci,BA,54903,-11.3253,-38.9584,167KM,105KM,190KM,442KM
AMASOFTWARE,amasoftware,30/05/2011,1,Salvador,BA,2900319,-12.9718,-38.5011,36KM,93KM,0KM,328KM
AMBBA,ambba,22/04/1987,5,Caetité,BA,51184,-14.0684,-42.4861,476KM,432KM,449KM,197KM
AMAT,amat,22/02/2006,5,Camamu,BA,35444,-13.9398,-39.1071,162KM,187KM,126KM,213KM
AMAZON DISTRIBUIDORA,amazon-distribuidora,11/05/2001,5,Itabuna,BA,214123,-14.7876,-39.2781,254KM,282KM,219KM,169KM
AMBAC,ambac,24/04/2000,5,Itaberaba,BA,64795,-12.5242,-40.3059,216KM,148KM,202KM,266KM
AMBAVINSF,ambavinsf,18/12/2002,5,Paulo Afonso,BA,119213,-9.3983,-38.2216,367KM,329KM,399KM,670KM
AMBIENTAGRO ENGENHARIA,ambientagro-engenharia,11/02/2011,3,Feira de Santana,BA,624107,-12.2664,-38.9663,84KM,0KM,93KM,352KM
AMBIENTAL CONSULTORIA & PROJETOS,ambiental-consultoria-projetos,16/02/2011,1,Vitória da Conquista,BA,343643,-14.8615,-40.8442,364KM,353KM,330KM,0KM
AMBBRU,ambbru,03/04/2003,5,Oliveira dos Brejinhos,BA,21797,-12.3132,-42.8969,498KM,427KM,482KM,359KM
AMBRIZ MEDICOS ESPECIALIZADOS LTDA ME,ambriz-medicos-especializados-ltda-me,23/11/2009,1,Salvador,BA,2900319,-12.9718,-38.5011,36KM,93KM,0KM,328KM
AMBIENTAL,ambiental,10/05/1994,1,Salvador,BA,2900319,-12.9718,-38.5011,36KM,93KM,0KM,328KM
AMBIENTAL ENGENHARIA,ambiental-engenharia,18/03/2011,1,Jaborandi,BA,8176,-13.6071,-44.4255,669KM,612KM,646KM,409KM
AMBAR QUIMICA,ambar-quimica,04/06/2001,1,Teixeira de Freitas,BA,164290,-17.5399,-39.74,560KM,592KM,525KM,321KM
AMCAD,amcad,10/08/2005,1,Itabuna,BA,214123,-14.7876,-39.2781,254KM,282KM,219KM,169KM
AMBIENTAL SUPPLY CHAIN,ambiental-supply-chain,23/04/1991,3,Salvador,BA,2900319,-12.9718,-38.5011,36KM,93KM,0KM,328KM
AMCA PADARIA E CONFEITARIA,amca-padaria-e-confeitaria,31/01/2012,1,Guaratinga,BA,20565,-16.5833,-39.7847,460KM,488KM,425KM,223KM
AMCI,amci,12/08/2008,5,Salvador,BA,2900319,-12.9718,-38.5011,36KM,93KM,0KM,328KM
AME,ame,17/12/1992,1,Salvador,BA,2900319,-12.9718,-38.5011,36KM,93KM,0KM,328KM
AMELGO SERVICOS TECNICOS,amelgo-servicos-tecnicos,01/06/2009,5,Salvador,BA,2900319,-12.9718,-38.5011,36KM,93KM,0KM,328KM
AMBU,ambu,10/02/1999,5,Ribeira do Pombal,BA,54097,-10.8373,-38.5382,208KM,166KM,237KM,512KM
AME-3 CONSTRUTORA LTDA,ame-3-construtora-ltda,01/04/2011,1,Salvador,BA,2900319,-12.9718,-38.5011,36KM,93KM,0KM,328KM
AMEFAL,amefal,07/07/2005,5,Rio Real,BA,41209,-11.4814,-37.9332,142KM,142KM,177KM,489KM
AMELLY CALCADOS,amelly-calcados,17/11/2010,1,Camaçari,BA,309208,-12.6996,-38.3263,0KM,85KM,36KM,362KM
AMEPARNA,ameparna,03/07/2006,5,Prado,BA,28214,-17.3364,-39.2227,525KM,564KM,492KM,326KM
AMELPI SOLUCOES ELETRICAS,amelpi-solucoes-eletricas,23/05/2014,1,Milagres,BA,10838,-12.8646,-39.8611,167KM,118KM,148KM,246KM
AMCRCB - ASSOC. DOS MORADORES DO CONJ. RESD. CAMPO BELO,amcrcb-assoc-dos-moradores-do-conj-resd-campo-belo,12/01/2012,5,Alagoinhas,BA,153023,-12.1335,-38.4208,64KM,61KM,94KM,400KM
AMEU,ameu,07/02/2012,5,Maracás,BA,19973,-13.4355,-40.4323,243KM,206KM,216KM,165KM
AMEN,amen,04/05/1993,5,Teofilândia,BA,22590,-11.4827,-38.9913,153KM,87KM,174KM,425KM
AMFC,amfc,25/04/2001,5,Ribeira do Pombal,BA,54097,-10.8373,-38.5382,208KM,166KM,237KM,512KM
AMERICO ERVAS E PRODUTOS NATURAIS,americo-ervas-e-produtos-naturais,21/05/2010,1,Paulo Afonso,BA,119213,-9.3983,-38.2216,367KM,329KM,399KM,670KM
AMIGOS DA PRACA,amigos-da-praca,23/05/2014,1,Salvador,BA,2900319,-12.9718,-38.5011,36KM,93KM,0KM,328KM
AMIGOS AUTO PECAS,amigos-auto-pecas,07/03/2006,1,Feira de Santana,BA,624107,-12.2664,-38.9663,84KM,0KM,93KM,352KM
AMFA,amfa,31/07/2008,5,Entre Rios,BA,42014,-11.9392,-38.0871,88KM,102KM,123KM,440KM
AMIGAS DO SABER ASSESSORIA PEDAGOGICA E PSICODEPAGOGICA,amigas-do-saber-assessoria-pedagogica-e-psicodepagogica,05/07/2010,1,Mata de São João,BA,47643,-12.5307,-38.3009,19KM,78KM,54KM,377KM
AMIL FABRICACAO DE ESTRUTURAS METALICAS,amil-fabricacao-de-estruturas-metalicas,10/07/2009,3,Brumado,BA,67468,-14.2021,-41.6696,399KM,364KM,370KM,115KM
AMIGAS DA ARTE,amigas-da-arte,10/02/2011,1,Salvador,BA,2900319,-12.9718,-38.5011,36KM,93KM,0KM,328KM
AMIGUINHOS DA MONICA,amiguinhos-da-monica,01/09/2000,1,Itabuna,BA,214123,-14.7876,-39.2781,254KM,282KM,219KM,169KM
AMFEC,amfec,30/11/2010,5,Lafaiete Coutinho,BA,3663,-13.6541,-40.2119,230KM,205KM,200KM,150KM
AMIL,amil,16/09/2003,1,Luís Eduardo Magalhães,BA,92671,-12.0956,-45.7866,812KM,741KM,795KM,614KM
AMK TRANSPORTES,amk-transportes,08/06/2009,1,Luís Eduardo Magalhães,BA,92671,-12.0956,-45.7866,812KM,741KM,795KM,614KM
AMJ,amj,27/09/2011,5,Jussara,BA,15241,-11.0431,-41.9702,436KM,354KM,433KM,442KM
AMM ENGENHARIA,amm-engenharia,18/08/2000,3,Salvador,BA,2900319,-12.9718,-38.5011,36KM,93KM,0KM,328KM
AMLSAJSJ,amlsajsj,02/02/2005,5,Simões Filho,BA,137117,-12.7866,-38.4029,13KM,84KM,23KM,349KM
AMLGR,amlgr,04/07/2005,5,Livramento de Nossa Senhora,BA,46372,-13.6369,-41.8432,395KM,348KM,370KM,173KM
AMO ADMINISTRACAO MEDICA ODONTOLOGICA,amo-administracao-medica-odontologica,28/11/2001,1,São Felipe,BA,21083,-12.8394,-39.0893,84KM,65KM,65KM,293KM
AMMON,ammon,14/03/2007,5,Vitória da Conquista,BA,343643,-14.8615,-40.8442,364KM,353KM,330KM,0KM
AMO ATENDIMENTO MEDICO E ODONTOLOGICO,amo-atendimento-medico-e-odontologico,26/01/2010,1,Jacobina,BA,80749,-11.1812,-40.5117,291KM,207KM,295KM,411KM
AMLDB,amldb,21/05/2004,5,Salvador,BA,2900319,-12.9718,-38.5011,36KM,93KM,0KM,328KM
AMO-BA,amo-ba,05/02/2003,5,Salvador,BA,2900319,-12.9718,-38.5011,36KM,93KM,0KM,328KM
AMOB,amob,29/01/2010,5,Seabra,BA,44370,-12.4169,-41.7722,375KM,305KM,360KM,290KM
AMOBRE,amobre,03/11/2008,5,Santaluz,BA,37704,-11.2508,-39.375,197KM,121KM,214KM,431KM
AMLEB,amleb,21/05/1990,5,Salvador,BA,2900319,-12.9718,-38.5011,36KM,93KM,0KM,328KM
AMOBOLIVIA,amobolivia,28/07/1989,5,Valença,BA,97873,-13.3669,-39.073,110KM,123KM,76KM,253KM
AMOCAJ - I I,amocaj-i-i,09/09/2008,5,Salvador,BA,2900319,-12.9718,-38.5011,36KM,93KM,0KM,328KM
AMOPA CV,amopa-cv,18/04/1995,5,Santaluz,BA,37704,-11.2508,-39.375,197KM,121KM,214KM,431KM
AMOEDO DISTRIBUIDORA,amoedo-distribuidora,17/08/1998,5,Salvador,BA,2900319,-12.9718,-38.5011,36KM,93KM,0KM,328KM
AMORCIN,amorcin,21/10/1986,5,Feira de Santana,BA,624107,-12.2664,-38.9663,84KM,0KM,93KM,352KM
AMOR DO BREJO DO BEZERRA,amor-do-brejo-do-bezerra,22/04/1993,5,Iuiú,BA,11038,-14.4054,-43.5595,599KM,553KM,571KM,296KM
AMORIM AUTOMOVEIS,amorim-automoveis,30/06/1972,1,Vitória da Conquista,BA,343643,-14.8615,-40.8442,364KM,353KM,330KM,0KM
AMOR PET,amor-pet,28/10/2003,1,Candeias,BA,87820,-12.6716,-38.5472,24KM,64KM,34KM,347KM
AMORIM PIMENTEL,amorim-pimentel,10/01/2012,1,Barra da Estiva,BA,20198,-13.6237,-41.3347,342KM,298KM,315KM,147KM
AMPAA,ampaa,02/01/2001,5,Cansanção,BA,34929,-10.6647,-39.4944,259KM,187KM,278KM,489KM
AMOTAC,amotac,20/07/2006,5,Cachoeira,BA,33659,-12.5994,-38.9587,69KM,37KM,65KM,323KM
AMORIM SUPERMERCADO,amorim-supermercado,28/06/2005,1,Itamaraju,BA,64423,-17.0378,-39.5386,500KM,534KM,466KM,280KM
AMPARE ENGENHARIA DE SEGURANCA DO TRABALHO,ampare-engenharia-de-seguranca-do-trabalho,18/02/2005,1,Salvador,BA,2900319,-12.9718,-38.5011,36KM,93KM,0KM,328KM
